name,latitude_deg,longitude_deg
Ocean Reef Club Airport,25.325399,-80.274803
Aleknagik / New Airport,59.2826004028,-158.617996216
baccaratshh,35,35
Sas Al Nakheel Air Base,24.44128,54.51696
Burton-Nibbs International Airport,17.621194,-61.798347
Honiara International Airport,-9.428,160.054993
Munda Airport,-8.32797,157.263
Nauru International Airport,-0.547893,166.919525
Grandfather Skiway,-77.530242,-31.827393
Boulder Clay Runway,-74.739373,164.03539
Aeroestación Yabotí,-27.180308,-54.107368
(Duplicate)Aeropuerto Pergamino,-33.89603,-60.5748
Concordia Skyway,-75.103278,123.35825
Vostok Skiway,-78.466139,106.84825
(Duplicate)Wolf's Fang Runway,-71.5264,8.799459
Nackeroo Airfield,-15.578026,130.475993
Alxa Left Banner Bayanhot Airport,38.748317,105.58416
Baimuru Airport,-7.496955,144.821756
Buka Airport,-5.422299,154.672698
Balimo Airport,-8.05000019073,142.932998657
Chimbu Airport,-6.024290084838867,144.9709930419922
Daru Airport,-9.08676,143.207993
Goroka Airport,-6.081689834590001,145.391998291
Gurney Airport,-10.3114995956,150.333999634
Girua Airport,-8.80453968048,148.309005737
Hoskins Airport,-5.463846,150.407327
Kerema Airport,-7.96361017227,145.770996094
Kavieng Airport,-2.57940006256,150.807998657
Madang Airport,-5.20707988739,145.789001465
Mount Hagen Kagamuga Airport,-5.828212,144.299412
Mendi Airport,-6.14774,143.656998
Momote Airport,-2.06189,147.423996
Nadzab Tomodachi International Airport,-6.567995,146.726544
Port Moresby Jacksons International Airport,-9.443380355834961,147.22000122070312
Tokua Airport,-4.34046,152.380005
Vanimo Airport,-2.6926,141.3028
Wapenamanda Airport,-5.635293,143.892231
Wewak International Airport,-3.58383011818,143.669006348
Zabrat Airport,40.494884,49.977065
Sitalchay Airbase,40.807313,49.431481
Qizilagach Air Base,39.006162,48.806312
Benguera Island Airport,-21.8533,35.438301
Bezmer Air Base,42.454899,26.3522
Aasiaat Airport,68.721802,-52.784698
Narsarsuaq International Airport,61.1605,-45.425999
Neerlerit Inaat Airport,70.743103,-22.650499
Nuuk International Airport,64.191066,-51.67914
Ilulissat Airport,69.243202,-51.057098
Kulusuk Airport,65.573601,-37.1236
Qaanaaq Airport,77.488602,-69.388702
Kangerlussuaq International Airport,67.010446,-50.715294
Sisimiut Airport,66.951302,-53.729301
Pituffik Space Base,76.53063,-68.700541
Akureyri International Airport,65.656573,-18.072018
Egilsstaðir Airport,65.2833023071289,-14.401399612426758
Grímsey Airport,66.5458,-18.0173
Hornafjörður Airport,64.295601,-15.2272
Húsavík Airport,65.952301,-17.426001
Ísafjörður Airport,66.058098,-23.1353
Keflavik International Airport,63.985001,-22.6056
Rif Airport,64.9114,-23.823099
Reykjavík Domestic Airport,64.128732,-21.93759
Siglufjörður Airport,66.137847,-18.908157
Vestmannaeyjar Airport,63.42430114746094,-20.278900146484375
Tourou International Airport,9.391186,2.507311
Priština Adem Jashari International Airport,42.5728,21.035801
Glauber de Andrade Rocha Airport,-14.907885,-40.914804
Russas - João de Deus Regional Airport,-4.94727,-38.008202
Betong International Airport,5.79,101.15
Orsha Airport - Balbasovo Air Base,54.439999,30.2967
Osovtsy Air Base,52.556999,24.884001
Caye Caulker Airport,17.735015,-88.032862
Caye Chapel Airport,17.683792,-88.044985
Corozal Airport,18.3822,-88.411903
Dangriga Airport,16.98251,-88.230988
Sartaneja Airport,18.3561,-88.130798
John Greif II Airport,17.9139,-87.9711
Sir Barry Bowen Municipal Airport,17.517239,-88.195775
Bazaruto Island Airport,-21.5411,35.4729
Anahim Lake Airport,52.451501,-125.303776
Qualicum Beach Airport,49.337456,-124.393086
Cache Creek-Ashcroft Regional Airport,50.775258,-121.321314
Bella Bella (Campbell Island) Airport,52.185001,-128.156994
Laohutun Air Base,39.669998,121.765999
Pulandian Air Base,39.450901,122.017998
Beijing Shahezhen Air Base,40.149166107177734,116.3213882446289
Beijing Tongxian Air Base,39.81111145019531,116.70833587646484
Fengning Air Base,41.260799407958984,116.61799621582031
Hohhot Bikeqi Air Base,40.737015,111.229749
Huairen Air Base,39.717499,113.142998
Liangxiangzhen Air Base,39.757801,116.125999
Tangguantun Air Base,38.781101,117.068001
Wenshui Air Base,37.407799,111.966003
Yangcun Air Base,39.37329864501953,117.09500122070312
Yongning Air Base,40.50310134887695,116.10800170898438
Tangshan Zunhua Air Base,40.102501,117.887001
Chengdu Huangtianba Air Base,30.705299,103.949997
Chongqing Baishiyi Air Base,29.4953,106.359001
Luliang Air Base,24.988192,103.642833
Honghe Mengzi Airport / Mengzi Air Base,23.3953,103.334
Qionglai Air Base,30.49099,103.466139
Wenshan Air Base,23.715599060058594,103.8270034790039
Xiangyun Midu Air Base,25.445299,100.735001
Baihe Ningming Air Base,22.120481,107.125046
Changsha Datuopu Airport / Changsha Air Base,28.068522,112.957306
Dangyang Air Base,30.798599,111.809998
Foluo Northeast Air Base,18.6922,109.161003
Bazhong Enyang Airport,31.73842,106.644872
Guiping Mengxu Air Base,23.330799,110.009003
Jialaishi Air Base,19.697201,109.725998
Leiyang Air Base,26.587200164794922,112.89199829101562
Lingshui Air Base,18.4944,109.987999
Shangqiu Air Base,34.449507,115.459261
Zhengzhou Air Base,34.86125,113.729631
Shaoguan Danxia Airport,24.9786,113.420998
Suixi Air Base,21.3958,110.199997
Jinggangshan Airport,26.856899,114.737
Guodu Air Base,36.000428,117.625833
Xiaogan Air Base,30.95359,113.911774
Cangxian Air Base,38.403025,116.930924
Jiaozhou Jiaocheng Air Base,36.331163,120.025538
Jiugucheng Air Base,37.491153,116.116726
Kaifeng Air Base,34.75389862060547,114.33899688720703
Laiyang Air Base,36.9636,120.591003
Luyang Air Base,33.685434,112.89053
Xuzhou Daguozhang Air Base,34.229285,117.245665
Zhucheng Air Base,36.027468,119.43778
Baoji Air Base,34.53125,107.470679
Gonghe Air Base,36.3367,100.480003
Huangdicun Naval Air Base,40.49979,120.659295
Lanzhou Air Base,35.917801,104.218002
Lintao Air Base,35.3083,103.835999
Qingshui Air Base,39.554699,98.884201
Ürümqi South Air Base,43.466593,87.531177
Uxxaktal Air Base,42.1814,87.188103
Wugong Air Base,34.275907,108.2658
Ürümqi Changji Air Base,43.951175,87.079232
Wuwei Air Base,37.9883,102.567001
Xi'an Air Base,34.153059,108.599739
Xincheng Air Base,25.5483,114.619003
Yaerbashi Test Range,43.077202,92.808098
Yanliang Air Base,34.642248,109.241867
Daishan Air Base,30.287581,122.144401
Feidong Air Base,31.909401,117.658997
Fuzhou Air Base,26.003857,119.312832
Huian Air Base,25.0261,118.806999
Hangzhou Jianqiao Airport,30.3353,120.240997
Jiaxing Airport / Jiaxing Air Base,30.705535,120.679779
Longtian Air Base,25.5728,119.459999
Nanchang Xiangtang Air Base,28.421205,115.923375
Ningbo Zhuangqiao Air Base,29.9228,121.573997
Shanghai Dachang Air Base,31.324438,121.409508
Wuhan Hannan Municipal Airport,30.25521,114.062805
Zhangshu Air Base,28.023283,115.549649
Changchun Air Base,43.9053,125.197998
Beijing Nanjiao Military Airport,39.48595,116.37236
Dingxin-Shuangchengzi Air Base,40.401402,99.789398
Fuxin Air Base,42.078899,121.662003
Gongzhuling Air Base,43.526293,124.78466
Kaiyuan Air Base,42.525799,123.982002
Lalin Air Base,45.259457,126.893536
Pingquan Air Base,40.900409,118.677878
Shenyang Beiling Air Base,41.8708,123.439003
Shenyang Yuhong Quansheng Airport,41.822498,123.299004
Siping Air Base,43.156898,124.292
Suizhong Air Base,40.298992,120.36152
Tuchengzi Air Base,38.912201,121.238998
Rikaze Dingri Airport,28.604567,86.798
Tashikuergan Hongqilafu Airport,37.661333,75.288877
Jiande Qiandaohu General Airport,29.360905,119.180829
Sanya Air Base,18.28754,109.46372
Chenghu General Airport,31.215334,120.789328
Anji Tianzihu General Airport,30.797725,119.590287
Jiuzhou Airport,26.998259,107.759571
Paozhuwan Air Base,30.673944,114.63089
Shanpo Air Base,30.087612,114.31366
Ali Pulan Airport,30.397898,81.13317
Shaodong Airport,27.2235,111.6741
Ningxiang Airport,27.987589,112.604971
Zhaotong Zhaoyang Airport （Not fully opened),27.205843,103.691511
Bengbu Tenghu Airport (U.C.),33.165808,117.057295
Beijing Xijiao Airport,39.958592,116.256765
Sanshilipu Air Base,39.289671,121.762195
Brampton-Caledon Airport,43.7603,-79.875
(Duplicate}Holguín Air Base,20.786418,-76.318513
Fort Frances Municipal Airport,48.655749,-93.44349
La Grande-4 Airport,53.754699707,-73.6753005981
Sault Ste Marie Airport,46.483216,-84.508467
Kasabonika Airport,53.52470016479492,-88.6427993774414
Winnipeg / St. Andrews Airport,50.0564,-97.032501
Lac du Bonnet Airport,50.294399,-96.010002
St. Anthony Airport,51.391909,-56.08321
Tofino / Long Beach Airport,49.079833,-125.775583
Baie-Comeau Airport,49.1325,-68.204399
Bella Coola Airport,52.387501,-126.596001
Bonnyville Airport,54.304199,-110.744003
Saguenay-Bagotville Airport,48.330123,-70.992012
Baker Lake Airport,64.29889678960001,-96.077796936
Campbell River Airport,49.950802,-125.271004
Brandon Municipal Airport,49.91,-99.951897
Nipawin Airport,53.33250045776367,-104.00800323486328
Calgary / Springbank Airport,51.103982,-114.369378
Lourdes-de-Blanc-Sablon Airport,51.4436,-57.185299
Cambridge Bay Airport,69.1081008911,-105.138000488
Cornwall Regional Airport,45.092637,-74.567724
Nanaimo Airport,49.05497,-123.869863
Centralia / James T. Field Memorial Aerodrome,43.285599,-81.508301
Castlegar/West Kootenay Regional Airport,49.296398,-117.632004
Miramichi Airport,47.007801,-65.449203
Charlo Airport,47.990799,-66.330299
Cochrane Airport,49.10559844970703,-81.01360321044922
Blue River Airport,52.11669921875,-119.28299713134766
Chetwynd Airport,55.687198638916016,-121.62699890136719
Dawson City Airport,64.04309844970703,-139.1280059814453
Burwash Airport,61.371101,-139.041
Deer Lake Airport,49.208159,-57.396147
Ross River Airport,61.9706001282,-132.42300415
Dauphin Barker Airport,51.1008,-100.052002
Dolbeau-Saint-Felicien Airport,48.7785,-72.375
Dawson Creek Airport,55.741245,-120.183263
Huronia Airport,44.6833000183,-79.9282989502
Edmonton International Airport,53.3097,-113.580002
Elliot Lake Municipal Airport,46.351398468,-82.5614013672
Manitoulin East Municipal Airport,45.842435,-81.857595
Estevan Airport,49.2103004456,-102.966003418
Edson Airport,53.578899383499994,-116.464996338
Inuvik Mike Zubko Airport,68.30419921880001,-133.483001709
Amos/Magny Airport,48.563903,-78.249702
Iqaluit Airport,63.756402,-68.555801
Fredericton International Airport,45.868697,-66.529891
Brantford Municipal Airport,43.131401,-80.342499
Forestville Airport,48.74610137939453,-69.09719848632812
Mont-Tremblant International Airport,46.409401,-74.779999
Fort Resolution Airport,61.1808013916,-113.690002441
Fort Simpson Airport,61.76020050048828,-121.23699951171875
Goderich Airport,43.7668991089,-81.7106018066
Golden Airport,51.299196,-116.982002
Kingston Norman Rogers Airport,44.2253,-76.596901
La Grande Rivière Airport,53.625301361083984,-77.7042007446289
Gimli Industrial Park Airport,50.62810134887695,-97.04329681396484
Michel-Pouliot Gaspé Airport,48.774915,-64.481893
Geraldton Greenstone Regional Airport,49.77830123901367,-86.93939971923828
Îles-de-la-Madeleine Airport,47.425242,-61.778612
Havre-Saint-Pierre Airport,50.281898,-63.611401
Kuujjuarapik Airport,55.281898498535156,-77.76529693603516
Dryden Regional Airport,49.831699,-92.744202
Hearst René Fontaine Municipal Airport,49.71419906616211,-83.68609619140625
John C. Munro Hamilton International Airport,43.17348,-79.931185
Hornepayne Municipal Airport,49.19309997558594,-84.75890350341797
Haines Junction Airport,60.7892,-137.546005
Montréal / Saint-Hubert Metropolitan Airport,45.517502,-73.416901
Hay River / Merlyn Carter Airport,60.8396987915,-115.782997131
Halifax / Stanfield International Airport,44.8807983398,-63.5085983276
Atikokan Municipal Airport,48.773899,-91.638603
Digby / Annapolis Regional Airport,44.5458450365,-65.7854247093
St Augustin Airport,51.2117,-58.658298
Island Lake Airport,53.857200622558594,-94.65360260009766
Fort Liard Airport,60.235801696799996,-123.46900177
St Jean Airport,45.29439926147461,-73.28109741210938
Stephenville Dymond International Airport,48.54339,-58.552892
Kamloops John Moose Fulton Field Regional Airport,50.703038,-120.448641
Region of Waterloo International Airport,43.4608,-80.378601
Key Lake Airport,57.256099700927734,-105.61799621582031
Schefferville Airport,54.805301666259766,-66.8052978515625
Kincardine Municipal Airport,44.201401,-81.606697
Kirkland Lake Airport,48.21030044555664,-79.98139953613281
Kindersley Airport,51.5175018311,-109.180999756
Chapleau Airport,47.81999969482422,-83.3467025756836
Meadow Lake Airport,54.125301361083984,-108.52300262451172
Lloydminster Airport,53.3092,-110.072998
Leaf Rapids Airport,56.513301849365234,-99.98529815673828
Barrie-Lake Simcoe Regional Airport,44.485056,-79.554663
Alert Airport,82.517263,-62.283037
Kelowna International Airport,49.9561,-119.377998
Mayo Airport,63.61640167236328,-135.8679962158203
Matane Airport,48.85689926147461,-67.45330047607422
Manitouwadge Airport,49.083900451660156,-85.86060333251953
Moose Jaw Air Vice Marshal C. M. McEwen Airport,50.330299377441406,-105.55899810791016
Charlevoix Airport,47.59749984741211,-70.2238998413086
Fort McMurray International Airport,56.653301,-111.222
Moosonee Airport,51.291099548339844,-80.60780334472656
Chapais Airport,49.77190017700195,-74.5280990600586
Montreal Mirabel International Airport,45.679501,-74.038696
Natashquan Airport,50.190114,-61.78898
Ottawa / Gatineau Airport,45.521702,-75.563599
Langley Airport,49.1008,-122.630997
Points North Landing Airport,58.27669906616211,-104.08200073242188
Matagami Airport,49.76169967651367,-77.80280303955078
Nejanilini Lake Airport,59.4874992371,-97.78029632570001
Ekati Airport,64.6988983154,-110.614997864
CFB Cold Lake,54.404998779296875,-110.27899932861328
High Level Airport,58.62139892578125,-117.16500091552734
Oshawa Executive Airport,43.922798,-78.894997
Rainbow Lake Airport,58.491402,-119.407997
Owen Sound / Billy Bishop Regional Airport,44.5903015137,-80.8375015259
Ottawa Macdonald-Cartier International Airport,45.322498,-75.669197
Prince Albert Glass Field,53.214199066199996,-105.672996521
Port Hawkesbury Airport,45.6567001343,-61.3680992126
Peace River Airport,56.226898,-117.446999
Portage-la-Prairie / Southport Airport,49.903099,-98.273817
Pitt Meadows Regional Airport,49.21488,-122.709294
Pickle Lake Airport,51.4463996887207,-90.21420288085938
Port-Menier Airport,49.836399,-64.288597
Peterborough Regional Airport,44.232251,-78.362053
Prince Rupert Airport,54.286098480199996,-130.445007324
Powell River Airport,49.83420181274414,-124.5
Puvirnituq Airport,60.050598,-77.286903
Fort Chipewyan Airport,58.7672004699707,-111.11699676513672
Burns Lake Airport,54.3764,-125.950996
Muskoka Airport,44.975376,-79.306546
Quebec Jean Lesage International Airport,46.7911,-71.393303
The Pas Airport,53.97140121459961,-101.09100341796875
Red Deer Regional Airport,52.182201,-113.893997
Windsor International Airport,42.2756,-82.955597
Watson Lake Airport,60.116839,-128.821993
Yarmouth Airport,43.826900482177734,-66.08809661865234
Kenora Airport,49.788299560546875,-94.36309814453125
Lethbridge County Airport,49.6302986145,-112.800003052
Greater Moncton Roméo LeBlanc International Airport,46.113189,-64.67719
Nakina Airport,50.18280029296875,-86.69640350341797
Comox Valley International Airport / CFB Comox,49.7108,-124.887001
Regina International Airport,50.431938,-104.660906
St Thomas Municipal Airport,42.77000045776367,-81.11080169677734
Thunder Bay International Airport,48.371899,-89.323898
Grande Prairie Airport,55.1796989441,-118.885002136
Yorkton Municipal Airport,51.26470184326172,-102.46199798583984
North Battleford Airport,52.769409,-108.243742
Gander International Airport,48.936258,-54.567719
Sydney / J.A. Douglas McCurdy Airport,46.1614,-60.047798
Quesnel Airport,53.026100158691406,-122.51000213623047
Resolute Bay Airport,74.7169036865,-94.9693984985
Rivière-du-Loup Airport,47.764400482177734,-69.58470153808594
Roberval Airport,48.519665,-72.265735
Red Lake Airport,51.066898345947266,-93.79309844970703
Ottawa / Rockcliffe Airport,45.460496,-75.644001
Ottawa / Carp Airport,45.3191986084,-76.0222015381
Trois-Rivières Airport,46.35279846191406,-72.67939758300781
Rankin Inlet Airport,62.8114013672,-92.1157989502
Revelstoke Airport,50.962245,-118.184258
Sudbury Airport,46.625,-80.79889678955078
Sherbrooke Airport,45.438599,-71.691399
Stony Rapids Airport,59.250301361083984,-105.84100341796875
Saint-Georges Airport,46.096401,-70.714699
Smiths Falls-Montague (Russ Beach) Airport,44.945801,-75.940598
Saint John Airport,45.31610107421875,-65.89029693603516
Saint-Léonard Airport,47.157097,-67.836242
Fort Smith Airport,60.020302,-111.961998
Niagara District Airport,43.191598,-79.171686
Marathon Airport,48.75529861450195,-86.34439849853516
Summerside Airport,46.440601,-63.833599
Pembroke Airport,45.86439895629883,-77.25170135498047
Alma Airport,48.5089,-71.641899
Thompson Airport,55.80110168457031,-97.86419677734375
CFB Trenton,44.118900299072266,-77.5280990600586
Timmins/Victor M. Power,48.569698333699996,-81.376701355
Billy Bishop Toronto City Airport,43.627852,-79.39553
Montreal / Pierre Elliott Trudeau International Airport,45.467837,-73.742294
Hall Beach Airport,68.7761,-81.2425
Rouyn Noranda Airport,48.20610046386719,-78.83560180664062
Bonaventure Airport,48.071098,-65.460297
La Ronge Airport,55.151401519800004,-105.262001038
Virden / RJ (Bob) Andrew Field Regional Aerodrome,49.8783,-100.917999
Vernon Regional Airport,50.246163,-119.330963
Val-d'Or Airport,48.0532989502,-77.7827987671
Kuujjuaq Airport,58.096099853515625,-68.4269027709961
Norman Wells Airport,65.28160095214844,-126.7979965209961
Vancouver International Airport,49.193901,-123.183998
Wiarton Airport,44.7458,-81.107201
Winnipeg / James Armstrong Richardson International Airport,49.909999847399995,-97.2398986816
Wabush Airport,52.92190170288086,-66.8644027709961
Williams Lake Airport,52.1831016541,-122.054000854
Wrigley Airport,63.20940017700195,-123.43699645996094
Cranbrook/Canadian Rockies International Airport,49.610802,-115.781998
Saskatoon John G. Diefenbaker International Airport,52.170723,-106.700793
Medicine Hat Regional Airport,50.018902,-110.721001
Fort St John / North Peace Regional Airport,56.238098,-120.739998
Rimouski Airport,48.477644,-68.496323
Sioux Lookout Airport,50.11389923095703,-91.9052963256836
Beaver Creek Airport,62.410301208496094,-140.86700439453125
Earlton (Timiskaming Regional) Airport,47.697400654599996,-79.8473453522
Prince George (International) Airport,53.884311,-122.666554
Northwest Regional Airport Terrace-Kitimat,54.468498,-128.576009
London International Airport,43.032845,-81.149003
Abbotsford International Airport,49.025299,-122.361
Whitehorse / Erik Nielsen International Airport,60.708533,-135.065705
Wawa Airport,47.96670150756836,-84.78669738769531
North Bay Jack Garland Airport,46.363602,-79.422798
Calgary International Airport,51.118822,-114.009933
Smithers Airport,54.82469940185547,-127.18299865722656
Fort Nelson Airport,58.8363990784,-122.597000122
Penticton Airport,49.46310043334961,-119.60199737548828
Charlottetown Airport,46.288911,-63.125174
Victoria International Airport,48.647201,-123.427792
Lynn Lake Airport,56.86389923095703,-101.07599639892578
Swift Current Airport,50.291900634799994,-107.691001892
Churchill Airport,58.739200592041016,-94.06500244140625
Goose Bay Airport,53.3191986084,-60.4258003235
St. John's International Airport,47.618599,-52.7519
Kapuskasing Airport,49.411587,-82.469645
Armstrong Airport,50.29029846191406,-88.90969848632812
Mont Joli Airport,48.60860061645508,-68.20809936523438
Toronto Pearson International Airport,43.675935,-79.629421
Gore Bay Manitoulin Airport,45.8853,-82.567802
Yellowknife International Airport,62.462799,-114.440002
Slave Lake Airport,55.292945,-114.777276
Sandspit Airport,53.25429916379999,-131.813995361
Chris Hadfield Airport,42.999401,-82.308899
Coral Harbour Airport,64.1932983398,-83.3593978882
Port Hardy Airport,50.680599212646484,-127.36699676513672
Whitecourt Airport,54.143902,-115.787003
Sept-Îles Airport,50.22330093383789,-66.2656021118164
Teslin Airport,60.17279815673828,-132.7429962158203
CFB Greenwood,44.98440170288086,-64.91690063476562
Mackenzie Airport,55.297786,-123.133907
Kostomlaty Airstrip,50.20843,14.92585
Shuswap Regional Airport,50.682802,-119.228996
Boundary Bay Airport,49.074338,-123.006877
Bathurst Airport,47.6297,-65.738899
Bromont (Roland Désourdy) Airport,45.290798,-72.741402
Kelsey Airport,56.0374984741,-96.50969696039999
Faro Airport,62.20750045776367,-133.37600708007812
Grand Forks Airport,49.015598,-118.431
Jenpeg Airport,54.51890182495117,-98.04609680175781
Swan River Airport,52.120602,-101.236
Thicket Portage Airport,55.31890106201172,-97.70780181884766
Pikwitonei Airport,55.58890151977539,-97.16419982910156
Masset Airport,54.0275,-132.125
Pincher Creek Airport,49.520429,-113.997002
Sandy Lake Airport,53.06420135498047,-93.34439849853516
Stewart Airport,55.935410448,-129.982434511
Ignace Municipal Airport,49.428204,-91.720418
Blida Airport,36.503601,2.81417
Bou Saada Airport,35.3325,4.20639
Soummam–Abane Ramdane Airport,36.712547,5.069909
Houari Boumediene Airport,36.693886,3.214531
Tiska Djanet Airport,24.285448,9.463652
Boufarik Air Base,36.545799,2.87611
Illizi Takhamalt Airport,26.723499,8.62265
Ain Arnat Airport,36.178488,5.329909
Aguenar – Hadj Bey Akhamok Airport,22.810992,5.450832
Jijel Ferhat Abbas Airport,36.794125,5.873652
Mecheria Airport,33.535900116,-0.242353007197
Relizane Airport,35.752955,0.625877
Annaba Rabah Bitat Airport,36.826781,7.81334
Mohamed Boudiaf International Airport,36.276001,6.62039
Cheikh Larbi Tébessi Airport,35.4315986633,8.12071990967
Batna Mostefa Ben Boulaid Airport,35.752102,6.30859
Hassi R'Mel Airport,32.930401,3.31154
Abdelhafid Boussouf Bou Chekif Airport,35.341099,1.46315
Tindouf Airport,27.7003993988,-8.167099952700001
Chlef Aboubakr Belkaid International Airport,36.216614,1.341114
Oran Tafraoui Airport,35.5424,-0.532278
Zenata – Messali El Hadj Airport,35.012732,-1.457117
Oran Es-Sénia (Ahmed Ben Bella) International Airport,35.620648,-0.622486
Béchar Boudghene Ben Ali Lotfi Airport,31.645700454711914,-2.269860029220581
Ghriss Airport,35.207699,0.147142
Touat-Cheikh Sidi Mohamed Belkebir Airport,27.837601,-0.186414
Biskra - Mohamed Khider Airport,34.79318,5.738899
El Golea Airport,30.580732,2.861595
Noumérat - Moufdi Zakaria Airport,32.384102,3.79411
Hassi Messaoud-Oued Irara Krim Belkacem Airport,31.673,6.14044
In Salah Airport,27.250999,2.51202
Touggourt Sidi Madhi Airport,33.067799,6.08867
Laghouat - Molay Ahmed Medeghri Airport,33.7644,2.92834
Guemar Airport - مطار قمار بالوادي,33.511398,6.77679
Timimoun Airport,29.237101,0.276033
Ain Beida Airport,31.9172,5.41278
Zarzaitine - In Aménas Airport,28.0515,9.64291
Cotonou Cadjehoun International Airport,6.35723,2.38435
Ouagadougou Thomas Sankara International Airport,12.3532,-1.51242
Bobo Dioulasso Airport,11.1601,-4.33097
Kotoka International Airport,5.605189800262451,-0.16678600013256073
Ho Airport,6.579691,0.532547
Yakubu Tali International Airport,9.553909,-0.86606
Prempeh I International Airport,6.71456,-1.59082
Sunyani Airport,7.36183,-2.32876
Takoradi Airport,4.896059989929199,-1.7747600078582764
Félix-Houphouët-Boigny International Airport,5.26139,-3.92629
Bouaké Airport,7.7388,-5.07367
Daloa Airport,6.79281,-6.47319
Korhogo Airport,9.38718,-5.55666
Man Airport,7.27207,-7.58736
San Pedro Airport,4.74672,-6.66082
Yamoussoukro International Airport,6.90317,-5.36558
Umaru Musa Yar'adua Airport,13.0078,7.66045
Nnamdi Azikiwe International Airport,9.00679,7.26317
Akwa Ibom International Airport,4.8725,8.093
Akure Airport,7.246739864349365,5.3010101318359375
Asaba International Airport,6.204167,6.665278
Sir Abubakar Tafawa Balewa Bauchi State International Airport,10.482833,9.744
Benin Airport,6.316979885101318,5.5995001792907715
Bayelsa International Airport,4.95759,6.203327
Margaret Ekpo International Airport,4.976019859313965,8.347200393676758
Akanu Ibiam International Airport,6.473718,7.560463
Gombe Lawanti International Airport,10.298889,10.9
Gusau Airport,12.17286,6.696136
Ibadan Airport,7.362460136413574,3.97832989692688
General Tunde Idiagbon International Airport,8.44021,4.49392
Sam Mbakwe International Cargo Airport,5.42706,7.20603
Yakubu Gowon Airport,9.639829635620117,8.869050025939941
Kaduna International Airport,10.696,7.32011
Mallam Aminu Kano International Airport,12.045613,8.523566
Maiduguri International Airport,11.854163,13.080702
Makurdi Airport,7.70388,8.61394
Murtala Muhammed International Airport,6.57737,3.32116
Minna Airport,9.652170181274414,6.462259769439697
Port Harcourt International Airport,5.01549,6.94959
Sadiq Abubakar III International Airport,12.915729,5.207547
Warri Airport,5.59821,5.8187
Yola Airport,9.257550239562988,12.430399894714355
Zaria Airport,11.1302,7.68581
Maradi Airport,13.5025,7.12675
Diori Hamani International Airport,13.4815,2.18361
Tahoua Airport,14.8757,5.26536
Mano Dayak International Airport,16.966,8.00011
Zinder Airport,13.779000282287598,8.983759880065918
Tabarka-Aïn Draham International Airport,36.98,8.87694
Monastir Habib Bourguiba International Airport,35.75809860229492,10.75469970703125
Enfidha - Hammamet International Airport,36.075833,10.438611
Tunis Carthage International Airport,36.851002,10.2272
Bizerte Sidi Ahmed Air Base,37.242356,9.787016
Remada Air Base,32.306198,10.3821
Gafsa Ksar International Airport,34.422000885009766,8.822500228881836
Gabès Matmata International Airport,33.733691,9.91941
Djerba Zarzis International Airport,33.873719,10.7773
El Borma Airport,31.7043,9.25462
Sfax Thyna International Airport,34.717999,10.691
Tozeur Nefta International Airport,33.939701080322266,8.110560417175293
Niamtougou International Airport,9.766675,1.090944
Lomé–Tokoin International Airport,6.16561,1.25451
Amguid Regional Airport,26.393417,5.325419
Antwerp International Airport (Deurne),51.190667,4.463153
Beauvechain Air Base,50.758598,4.76833
Kleine Brogel Air Base,51.168301,5.47
Brussels Airport,50.901402,4.48444
Brussels South Charleroi Airport,50.461963,4.459562
Chièvres Air Base,50.575801849365234,3.8310000896453857
Koksijde Air Base,51.090302,2.65278
Florennes Air Base,50.2433013916,4.64583015442
Flanders International Airport Kortrijk-Wevelgem,50.818878,3.209551
Liège Airport,50.638574,5.443897
Ostend-Bruges International Airport,51.1998,2.874673
Leipzig–Altenburg Airport,50.981945,12.506389
Heringsdorf Airport,53.8787,14.1523
Neubrandenburg Trollenhagen Airport,53.6022,13.306
Rothenburg/Görlitz Airfield,51.363335,14.95
Berlin Brandenburg Airport,52.361738,13.502341
Dresden Airport,51.134123,13.767831
Erfurt-Weimar Airport,50.978281,10.960713
Frankfurt Main Airport,50.026706,8.55835
Münster Osnabrück Airport,52.133816,7.688482
Hamburg Helmut Schmidt Airport,53.630402,9.98823
Cologne Bonn Airport,50.865898,7.14274
Düsseldorf Airport,51.289501,6.76678
Munich Airport,48.353802,11.7861
Nuremberg Airport,49.498699,11.078056
Leipzig/Halle Airport,51.420657,12.232705
Saarbrücken Airport,49.217562,7.111667
Stuttgart Airport,48.689899,9.22196
Hannover Airport,52.461102,9.68508
Bremen Airport,53.046786,8.78932
Frankfurt-Egelsbach Airport,49.96,8.643043
Frankfurt-Hahn Airport,49.946353,7.261734
Mannheim-City Airport,49.473057,8.514167
Mainz-Finthen Airfield,49.967499,8.147222
Eisenach-Kindel Airport,50.991604,10.47973
Siegerland Airport,50.707699,8.08297
Hamburg-Finkenwerder Airport,53.5352783203125,9.835556030273438
Kiel-Holtenau Airport,54.37957,10.145266
Lübeck Blankensee Airport,53.805401,10.7192
Memmingen Allgau Airport,47.988092,10.238248
Bielefeld Airport,51.964722,8.544444
Mönchengladbach Airport,51.230278,6.504444
Paderborn Lippstadt Airport,51.612527,8.617459
Weeze (Niederrhein) Airport,51.601362,6.141228
Dortmund Airport,51.518299,7.61224
Augsburg Airport,48.425278,10.931667
Landshut Airfield,48.512019,12.034865
Oberpfaffenhofen Airport,48.081402,11.2831
Bodensee Airport Friedrichshafen,47.671299,9.51149
Bamberg-Breitenau Airfield,49.920403,10.914233
Bayreuth Airport,49.985001,11.64
Hof-Plauen Airport,50.288544,11.852876
Karlsruhe Baden-Baden Airport,48.7794,8.0805
Donaueschingen-Villingen Airfield,47.973331,8.522222
Lahr Airport,48.369301,7.82772
Mengen-Hohentengen Airfield,48.05389,9.372778
Adolf Würth Airport,49.118332,9.783889
Zerbst Airfield,52.000832,12.148611
Braunschweig-Wolfsburg Airport,52.319199,10.5561
Kassel Airport,51.418395,9.391638
Westerland Sylt Airport,54.9132,8.34047
Ämari Air Base,59.259599,24.204799
Kärdla Airport,58.99079895019531,22.830699920654297
Kuressaare Airport,58.22990036010742,22.50950050354004
Pärnu Airport,58.41899871826172,24.47279930114746
Berenice International Airport / Banas Cape Air Base,23.980437,35.460277
Lennart Meri Tallinn Airport,59.413246,24.83264
Tartu Airport,58.307438,26.686473
Enontekio Airport,68.362602233887,23.424299240112
Halli Airport,61.856039,24.786686
Helsinki Vantaa Airport,60.318363,24.963341
Kitee Airport,62.1661,30.073601
Ivalo Airport,68.6073,27.4053
Joensuu Airport,62.658815,29.619398
Jyväskylä Airport,62.399502,25.678301
Kauhava Airfield,63.127102,23.051399
Kemi-Tornio Airport,65.778701782227,24.582099914551
Kajaani Airport,64.2855,27.6924
Kauhajoki Airfield,62.463212,22.390817
Kokkola-Pietarsaari Airport,63.721199,23.143101
Kuusamo Airport,65.987602,29.239401
Kittilä International Airport,67.700996,24.8468
Kuopio Airport,63.007099,27.7978
Lappeenranta Airport,61.044601,28.144743
Mariehamn Airport,60.1222,19.898199
Mikkeli Airport,61.6866,27.201799
Oulu Airport,64.930099,25.354601
Pori Airport,61.4617,21.799999
Helsinki East-Redstone Aerodrome,60.479167,26.593889
Rovaniemi Airport,66.563327,25.829751
Savonlinna Airport,61.9431,28.945101
Seinäjoki Airport,62.692101,22.8323
Sodankyla Airport,67.3949966431,26.6191005707
Tampere-Pirkkala Airport,61.414101,23.604401
Turku Airport,60.514099,22.2628
Utti Air Base,60.8964,26.9384
Vaasa Airport,63.05023,21.762543
Varkaus Airport,62.171101,27.868601
Ylivieska Airfield,64.054722,24.725278
Bilbeis 2 Airfield,30.42060089111328,31.67889976501465
Belfast International Airport,54.6575012207,-6.2158298492399995
Enniskillen/St Angelo Airport,54.398274,-7.651179
George Best Belfast City Airport,54.618099,-5.8725
City of Derry Airport,55.042801,-7.16111
Birmingham Airport,52.453899,-1.74803
Coventry Airport,52.369701,-1.47972
Gloucestershire Airport,51.894199,-2.16722
Nottingham City Airport,52.919998,-1.07917
Manchester Airport,53.349375,-2.279521
Royal Marines Base Chivenor,51.0872,-4.15034
MoD Boscombe Down,51.152199,-1.74741
RNAS Culdrose,50.08610153198242,-5.255710124969482
MOD St Athan,51.405229,-3.433254
RNAS Yeovilton,51.009399,-2.63882
Campbeltown Airport,55.437199,-5.68639
Eday Airport,59.19060134887695,-2.7722198963165283
Haverfordwest Airport,51.833099365234375,-4.9611101150512695
Cardiff International Airport,51.396702,-3.34333
Swansea Airport,51.601366,-4.071006
Bristol Airport,51.382326,-2.716453
Liverpool John Lennon Airport,53.334863,-2.849637
London Luton Airport,51.874699,-0.368333
Bournemouth Airport,50.780483,-1.839576
Southampton Airport,50.950298,-1.3568
Lasham Airfield,51.18744,-1.031663
Cornwall Airport Newquay,50.440601,-4.99541
Alderney Airport,49.706104,-2.21472
Guernsey Airport,49.435001,-2.60197
Jersey Airport,49.207901,-2.19551
Brighton City Airport,50.835602,-0.297222
London Biggin Hill Airport,51.33079910279999,0.0324999988079
London Gatwick Airport,51.148744,-0.185739
London City Airport,51.505299,0.055278
Farnborough Airport,51.275799,-0.776333
Blackbushe Airport,51.323898,-0.8475
London Heathrow Airport,51.470748,-0.459909
London Southend Airport,51.570562,0.693627
Lydd London Ashford Airport,50.956246,0.939074
Carlisle Lake District Airport,54.9375,-2.80917
Blackpool Airport,53.771702,-3.02861
Humberside Airport,53.576152,-0.34954
Barrow Walney Island Airport,54.1286111,-3.2675
Leeds Bradford Airport,53.865898,-1.66057
Warton Aerodrome,53.745098,-2.88306
Hawarden Airport,53.178101,-2.97778
Isle of Man Airport,54.083081,-4.623871
Newcastle International Airport,55.037958,-1.689577
Teesside International Airport,54.509201,-1.42941
East Midlands Airport,52.8311,-1.32806
RAF Spadeadam,55.0499992371,-2.54999995232
RAF Shawbury,52.798199,-2.66804
Anglesey Airport,53.2481,-4.53534
Kirkwall Airport,58.957903,-2.905077
Sumburgh Airport,59.878899,-1.29556
Wick John O'Groats Airport,58.4589,-3.09306
Aberdeen International Airport,57.2019,-2.19778
Inverness Airport,57.5425,-4.0475
Glasgow Airport,55.871899,-4.43306
Edinburgh Airport,55.950145,-3.372288
Islay Airport,55.682708,-6.257525
Glasgow Prestwick Airport,55.501499,-4.577182
Benbecula Airport,57.481098,-7.36278
Dundee Airport,56.452499,-3.02583
Stornoway Airport,58.215599,-6.33111
Barra Airport,57.0228,-7.44306
Tiree Airport,56.499199,-6.86917
Leuchars Station Airfield,56.37398,-2.868862
RAF Lossiemouth,57.7052,-3.33917
Cambridge City Airport,52.205002,0.175
Norwich Airport,52.6758,1.28278
London Stansted Airport,51.884998,0.235
Cranfield Airport,52.072201,-0.616667
Exeter International Airport,50.734261,-3.413984
London Oxford Airport,51.836899,-1.32
RAF Benson,51.614366,-1.095991
RAF Lakenheath,52.40954,0.561161
RAF Mildenhall,52.3619,0.486406
Wattisham Airfield,52.127451,0.956189
RAF Fairford,51.683568,-1.789172
RAF Brize Norton,51.75,-1.58362
RAF Odiham,51.2341,-0.942825
RAF Cosford,52.640524,-2.305326
RAF Northolt,51.553001,-0.418167
RAF Coningsby,53.092999,-0.166014
RAF Leeming,54.297191,-1.538944
Leeds East Airport,53.834747,-1.194678
RAF Honington,52.342602,0.772939
RAF Wittering,52.612598,-0.476453
RAF Waddington,53.166199,-0.523811
RAF Topcliffe,54.204116,-1.380265
RAF Cranwell,53.0303,-0.483242
RAF Barkston Heath,52.960616,-0.559428
RAF Marham,52.648395,0.550692
Mount Pleasant Airport / RAF Mount Pleasant,-51.822642,-58.445777
Amsterdam Airport Schiphol,52.308601,4.76389
Kempen Airport Budel,51.255299,5.60139
Maastricht Aachen Airport,50.911087,5.769401
Deelen Air Base,52.0606,5.87306
Eindhoven Airport,51.4500999451,5.37452983856
Groningen Airport Eelde,53.119107,6.577652
Gilze Rijen Air Base,51.567402,4.93183
De Kooy Airfield / Den Helder Naval Air Station,52.923401,4.78062
Lelystad Airport,52.453188,5.514622
Leeuwarden Air Base,53.228599548339844,5.760560035705566
Rotterdam The Hague Airport,51.956902,4.43722
Twente Airport,52.275833,6.889167
Volkel Air Base,51.657222,5.707778
Woensdrecht Air Base,51.4491,4.34203
Cork International Airport,51.841301,-8.49111
Donegal Airport,55.0442008972168,-8.340999603271484
Dublin Airport,53.428713,-6.262121
Ireland West Airport Knock,53.910439,-8.817002
Kerry Airport,52.180901,-9.52378
Casement Air Base,53.301700592,-6.451330184940001
Shannon Airport,52.702,-8.92482
Sligo Airport,54.280200958252,-8.5992097854614
Waterford Airport,52.187199,-7.08696
Weston Airport,53.351622,-6.490357
Aarhus Airport,56.303331,10.618286
Billund Airport,55.740335,9.157019
Copenhagen Kastrup Airport,55.617900848389,12.656000137329
Esbjerg Airport,55.525902,8.5534
Midtjyllands Airport / Air Base Karup,56.297139,9.104311
Lolland Falster Maribo Airport,54.699447,11.438163
Odense Hans Christian Andersen Airport,55.475307,10.327206
Copenhagen Roskilde Airport,55.585602,12.1314
Bornholm Airport,55.063301,14.7596
Sønderborg Airport,54.96440124511719,9.791729927062988
Sindal Airport,57.503502,10.2294
Skrydstrup Air Base,55.221048,9.26702
Skive Airport,56.550201,9.17298
Thisted Airport,57.068802,8.70522
Kolding Vamdrup Airfield,55.436298,9.33092
Vágar Airport,62.063256,-7.275782
Stauning Vestjylland  Airport,55.990101,8.35391
Aalborg Airport,57.094763,9.84993
Luxembourg-Findel International Airport,49.626845,6.212134
Ålesund Airport,62.560443,6.110845
"Andøya Airport, Andenes",69.295193,16.139379
Alta Airport,69.976097,23.3717
"Brønnøysund Airport, Brønnøy",65.461098,12.2175
Bodø Airport,67.269203,14.3653
"Bergen Airport, Flesland",60.2934,5.21814
Båtsfjord Airport,70.60025,29.692612
Berlevåg Airport,70.871517,29.034097
Kristiansand Airport,58.204201,8.08537
Bardufoss Airport,69.055801,18.5404
Harstad/Narvik Airport,68.491302,16.678101
Florø Airport,61.583599090576,5.0247201919556
Oslo-Gardermoen International Airport,60.193901,11.1004
"Haugesund Airport, Karmøy",59.345299,5.20836
Hammerfest Airport,70.679703,23.6686
"Honningsvåg Airport, Valan",71.009697,25.983601
"Kristiansund Airport, Kvernberget",63.111801,7.82452
"Kirkenes Airport, Høybuktmoen",69.7258,29.8913
Leknes Airport,68.152496337891,13.609399795532
Mehamn Airport,71.029701,27.8267
"Molde Airport, Årø",62.744701,7.2625
"Mosjøen Airport, Kjærstad",65.783997,13.2149
"Lakselv Airport, Banak",70.068802,24.973499
Notodden Airport,59.565071,9.213152
Ørland Airport,63.69889831542969,9.604000091552734
"Ørsta-Volda Airport, Hovden",62.180000305176,6.0741000175476
"Mo i Rana Airport, Røssvoll",66.363899230957,14.301400184631
"Rørvik Airport, Ryum",64.838302612305,11.14610004425
Røros Airport,62.578399658203,11.342300415039
"Moss Airport, Rygge",59.378817,10.785439
Svalbard Airport,78.246101,15.4656
"Svolvær Airport, Helle",68.243301,14.6692
"Stokmarknes Airport, Skagen",68.578827,15.033417
Skien Airport,59.185001,9.56694
"Stord Airport, Sørstokken",59.791901,5.34085
Sørkjosen Airport,69.786797,20.9594
"Vardø Airport, Svartnes",70.3554,31.044901
"Sandnessjøen Airport, Stokka",65.956802,12.4689
Tromsø Airport,69.683296,18.9189
"Sandefjord Airport, Torp",59.186699,10.2586
"Trondheim Airport, Værnes",63.457802,10.924
Vadsø Airport,70.0653,29.8447
"Stavanger Airport, Sola",58.876701,5.63778
Ignacy Jan Paderewski Bydgoszcz Airport,53.096802,17.977699
Cewice Naval Air Base,54.416525,17.765734
Deblin Military Air Base,51.551021,21.892322
Gdańsk Lech Wałęsa Airport,54.377602,18.4662
Inowroclaw Military Air Base,52.829399,18.330601
Kraków John Paul II International Airport,50.077702,19.7848
Krzesiny Military Air Base,52.331699,16.9664
Katowice Wojciech Korfanty International Airport,50.476015,19.080705
Lublin Airport,51.240157,22.713461
Łask Air Base,51.551701,19.1791
Łódź Władysław Reymont Airport,51.721901,19.3981
Leźnica Wielka Air Base,52.004945,19.143792
Malbork Królewo Air Base,54.026598,19.135718
Miroslawiec Military Air Base,53.3951,16.0828
Minsk Mazowiecki Military Air Base,52.1954994202,21.6558990479
Warsaw Modlin Airport,52.451099,20.6518
Poznań-Ławica Airport,52.421598,16.823359
Powidz Military Air Base,52.380087,17.853155
Warsaw Radom Airport,51.38937,21.214742
Rzeszów-Jasionka Airport,50.109791,22.024155
Solidarity Szczecin–Goleniów Airport,53.584702,14.9022
Swidwin Military Air Base,53.7906,15.8263
Olsztyn-Mazury Airport,53.481899,20.9377
Tomaszów Mazowiecki Military Air Base,51.5844,20.097799
Warsaw Chopin Airport,52.165699,20.9671
Copernicus Wrocław Airport,51.103719,16.882096
Zielona Góra-Babimost Airport,52.1385,15.7986
Folgueroles Airfield,41.9527,2.3072
Malmen Air Base,58.397666,15.522422
Ronneby Airport,56.266701,15.265
Råda Air Base,58.4981,13.0532
Göteborg Landvetter Airport,57.6628,12.2798
Jönköping Airport,57.757598876953125,14.068699836730957
Säve Airport,57.7747,11.8704
Skövde Airport,58.456402,13.9727
Trollhättan-Vänersborg Airport,58.31809997558594,12.345000267028809
Såtenäs Air Base,58.426399,12.7144
Karlskoga Airport,59.345901,14.4959
Mora Airport,60.957901,14.5114
Stockholm Skavsta Airport,58.789656,16.911479
Scandinavian Mountains Airport,61.16508,12.83352
Kristianstad Airport,55.9217,14.0855
Kalmar Airport,56.685501,16.2876
Malmö Sturup Airport,55.535564,13.376327
Halmstad Airport,56.69110107421875,12.820199966430664
Växjö Kronoberg Airport,56.929100036621094,14.727999687194824
Gällivare Airport,67.13240051269531,20.814599990844727
Kramfors-Sollefteå Höga Kusten Airport,63.048599,17.7689
Lycksele Airport,64.548302,18.7162
Sundsvall-Härnösand Airport,62.528099060058594,17.443899154663086
Örnsköldsvik Airport,63.40829849243164,18.989999771118164
Kiruna Airport,67.821999,20.3368
Skellefteå Airport,64.62480163574219,21.076900482177734
Umeå Airport,63.791801,20.282801
Vilhelmina South Lapland Airport,64.579102,16.833599
Arvidsjaur Airport,65.59030151367188,19.28190040588379
Söderhamn Airport,61.261501,17.0991
Åre Östersund Airport,63.193546,14.504168
Örebro Airport,59.22370147705078,15.038000106811523
Karlstad Airport,59.444698,13.3374
Stockholm Västerås Airport,59.589401,16.6336
Luleå Airport,65.5438,22.122
Stockholm-Arlanda Airport,59.64849,17.928829
Stockholm-Bromma Airport,59.354401,17.9417
Dala Airport,60.422001,15.5152
Gävle Sandviken Airport,60.5933,16.951401
Linköping City Airport,58.404909,15.684499
Norrköping Airport,58.586299896240234,16.250600814819336
Torsby Airport,60.1576,12.9913
Eskilstuna Airport,59.351101,16.708401
Visby Airport,57.6628,18.346201
Ängelholm-Helsingborg Airport,56.29610061645508,12.847100257873535
Ljungbyhed Airfield,56.082802,13.2125
Storuman Airport,64.960899,17.6966
Spangdahlem Air Base,49.976507,6.698413
Ramstein Air Base,49.436901,7.60028
Bückeburg Air Base,52.2785,9.08217
Celle Army Airfield,52.591202,10.0221
Fritzlar Army Airfield,51.1146,9.286
Laupheim Air Base,48.220299,9.91002
Niederstetten Army Air Base,49.39162,9.956747
Faßberg Air Base,52.919399,10.185827
Grafenwöhr Army Air Field,49.6987,11.9402
Hohenfels Army Airfield,49.216541,11.836064
Sea-Airport Cuxhaven/Nordholz / Nordholz Naval Airbase,53.767689,8.659201
Diepholz Air Base,52.585556,8.342222
Geilenkirchen Air Base,50.9608,6.04242
Hohn Air Base,54.312199,9.53817
Rostock-Laage Airport,53.918201,12.2783
Nörvenich Air Base,50.8312,6.65817
Schleswig Air Base,54.459301,9.51633
Wittmundhafen Air Base,53.547798,7.66733
Wunstorf Air Base,52.457298,9.42717
Wiesbaden Army Airfield,50.049800872802734,8.325400352478027
Büchel Air Base,50.173801,7.06333
Holzdorf Air Base,51.767799,13.1677
Ingolstadt Manching Airport,48.7156982421875,11.534000396728516
Lechfeld Air Base,48.185504,10.8612
Neuburg Air Base,48.710999,11.2115
Jēkabpils Air Base,56.534698,25.8925
Liepāja International Airport,56.517502,21.096901
Riga International Airport,56.920752,23.970711
Jūrmala Airport,56.9422,23.2239
Kaunas International Airport,54.963965,24.08582
Kėdainiai Air Base,55.31169891357422,23.95639991760254
Palanga International Airport,55.973202,21.093901
Panevėžys Air Base,55.729400634765625,24.460800170898438
Šiauliai International Airport,55.89390182495117,23.395000457763672
Barysiai Airfield,56.070599,23.5581
Vilnius International Airport,54.634102,25.285801
Alexander Bay Airport,-28.575001,16.5333
Aggeneys Airport,-29.281799,18.8139
Bisho Airport,-32.897099,27.2791
Bram Fischer International Airport,-29.092699,26.302401
Barberton Airport,-25.717147,30.974974
Cape Town International Airport,-33.97403,18.604333
King Phalo Airport,-33.035599,27.825899
Ermelo Airport,-26.4956,29.979799
Ficksburg Sentraoes Airport,-28.82309913635254,27.908899307250977
Grand Central Airport,-25.986299514799995,28.1401004791
George Airport,-34.0056,22.378902
Rand Airport,-26.2425,28.151199
Harrismith Airport,-28.2351,29.106199
Eastgate Airport / Air Force Base Hoedspruit,-24.361864,31.052921
P C Pelser Airport,-26.871099,26.718
Kimberley Airport,-28.805401,24.764872
Kruger Mpumalanga International Airport,-25.383327,31.105325
Johan Pienaar Airport,-27.45669937133789,23.411399841308594
Kleinsee Airport,-29.6884002686,17.093999862700002
Lanseria International Airport,-25.938964,27.926642
Lime Acres Finsch Mine Airport,-28.36009979248047,23.43910026550293
King Shaka International Airport,-29.6144444444,31.1197222222
Langebaanweg Airport,-32.968898773199996,18.1602993011
Ladysmith Airport,-28.5816993713,29.749700546299998
Malamala Airport,-24.816866,31.544085
Margate Airport,-30.8574008942,30.343000412
Mmabatho International Airport,-25.798400878900004,25.548000335699996
Morningside Farm Airport,-25.7045001984,26.9090003967
Mkuze Airport,-27.626100540161133,32.0443000793457
Newcastle Airport,-27.7705993652,29.976900100699996
Oudtshoorn Airport,-33.6069984436,22.188999176
O.R. Tambo International Airport,-26.140081,28.246801
Chief Dawid Stuurman International Airport,-33.989715,25.617353
Plettenberg Bay Airport,-34.08816,23.328723
Hendrik Van Eck Airport,-23.937200546299998,31.1553993225
Pietersburg Municipal Airport,-23.9261,29.4844
Port St Johns Airport,-31.60612,29.52175
Pietermaritzburg Airport,-29.649000167799997,30.3987007141
Pilanesberg International Airport,-25.333799,27.173401
Polokwane International Airport,-23.845269,29.458615
Potchefstroom Airport,-26.670999527,27.0818996429
Queenstown Airport,-31.92020034790039,26.882200241088867
Richards Bay Airport,-28.740999221800003,32.0920982361
Rustenburg Airport,-25.6443,27.271099
Robertson Airport,-33.812199,19.9028
Springbok Airport,-29.689300537109375,17.939599990844727
Secunda Airport,-26.52409935,29.170099258399997
Saldanha/Vredenburg Airport,-32.9641,17.969299
Swartkop Air Force Base,-25.8097,28.1646
Sishen Airport,-27.6486,22.9993
Skukuza Airport,-24.96085,31.588587
Tzaneen Airport,-23.8244,30.3293
Prince Mangosuthu Buthelezi Airport,-28.3206005096,31.4165000916
Upington International Airport,-28.400517,21.263357
K. D. Matanzima Airport,-31.546363184900002,28.6733551025
Vryburg Airport,-26.9824008942,24.7287998199
Virginia Airport,-29.770599,31.058399
Vredendal Airport,-31.641000747680664,18.5447998046875
Vereeniging Airport,-26.566401,27.9608
Wonderboom Airport,-25.6539,28.224199
Waterkloof Air Force Base,-25.829999923699997,28.222499847399998
Ysterplaat Air Force Base,-33.9002,18.498301
Phillip Gaonwe Matante International Airport,-21.159183,27.468826
Jwaneng Airport,-24.602301,24.691
Kasane International Airport,-17.831653,25.166195
Maun International Airport,-19.970491,23.431409
Sir Seretse Khama International Airport,-24.555201,25.9182
Sua Pan Airport,-20.5534,26.115801
Selebi Phikwe Airport,-22.0583,27.8288
Maya-Maya International Airport,-4.2517,15.253
Oyo Ollombo Airport,-1.226666,15.91
Owando Airport,-0.524566,15.93782
Ouesso Airport,1.61599,16.037901
Ngot Nzoungou Airport,-4.20635,12.6599
Antonio Agostinho-Neto International Airport,-4.81603,11.8866
Matsapha International Airport,-26.528919,31.307577
King Mswati III International Airport,-26.358611,31.716944
Bangui M'Poko International Airport,4.39848,18.518801
Berbérati Airport,4.2215800285339355,15.786399841308594
Bata International Airport,1.90547,9.80568
President Obiang Nguema International Airport,1.676437,11.024904
Malabo International Airport,3.75527,8.70872
RAF Ascension Island,-7.970179,-14.392744
Saint Helena International Airport,-15.958898,-5.646066
Sir Seewoosagur Ramgoolam International Airport,-20.430201,57.683601
Sir Charles Gaetan Duval Airport,-19.7577,63.361
Naval Support Facility Diego Garcia,-7.31327,72.411102
Tiko Airport,4.08919000626,9.360529899600001
Douala International Airport,4.00608,9.71948
Salak Airport,10.451399803161621,14.257399559020996
Foumban Nkounja Airport,5.63692,10.7508
N'Gaoundéré Airport,7.3570098876953125,13.559200286865234
Garoua International Airport,9.334785,13.372129
Bafoussam Airport,5.536920070650001,10.354599952700001
Bamenda Airport,6.03924,10.1226
Yaoundé Ville Airport,3.83604,11.5235
Yaoundé Nsimalen International Airport,3.72256,11.5533
Kasompe Airport,-12.5728,27.8939
Lusaka City Airport,-15.4138,28.3307
Harry Mwanga Nkumbula International Airport,-17.821524,25.819642
Kenneth Kaunda International Airport,-15.330833,28.452722
Mfuwe International Airport,-13.2589,31.9366
Mongu Airport,-15.2545,23.1623
Peter Zuze Air Force Base,-12.997222,28.663889
Simon Mwansa Kapwepwe International Airport,-12.96513,28.515624
Southdowns Airport,-12.9005,28.1499
Prince Said Ibrahim International Airport,-11.5337,43.2719
Mohéli Bandar Es Eslam Airport,-12.298096,43.766496
Ouani Airport,-12.131047,44.430044
Dzaoudzi Pamandzi International Airport,-12.809319,45.281815
Roland Garros Airport,-20.890087,55.518894
Pierrefonds Airport,-21.319362,55.422506
Ivato International Airport,-18.7969,47.478802
Miandrivazo Airport,-19.562799,45.450802
Sainte Marie Airport,-17.093901,49.8158
Toamasina Ambalamanasy Airport,-18.113537,49.392262
Morondava Airport,-20.2847,44.3176
Arrachart Airport,-12.3494,49.291698
Mananara Nord Airport,-16.1639,49.7738
Andapa Airport,-14.651700019836426,49.620601654052734
Antsirabe Airport,-14.9994,50.320202
Analalava Airport,-14.629514,47.763555
Amborovy Airport,-15.666842,46.351233
Nosy Be-Fascene International Airport,-13.3121,48.3148
Besalampy Airport,-16.74453,44.482484
Maroantsetra Airport,-15.437742,49.689081
Sambava Airport,-14.2786,50.174702
Vohemar Airport,-13.3758,50.0028
Ambalabe Airport,-14.8988,47.9939
Tôlanaro Airport,-25.038099,46.9561
Fianarantsoa Airport,-21.441601,47.111698
Manakara Airport,-22.119699,48.021702
Mananjary Airport,-21.201799,48.358299
Morombe Airport,-21.753837,43.374753
Toliara Airport,-23.3834,43.7285
Mbanza Congo Airport,-6.269899845123291,14.246999740600586
Benguela Airport,-12.609,13.4037
Dr. Antonio Agostinho Neto International Airport,-9.050734,13.499078
Cabinda Airport,-5.59839,12.188145
Catumbela Airport,-12.4792,13.4869
Dundo Airport,-7.400889873504639,20.818500518798828
Ngjiva Pereira Airport,-17.0435009003,15.683799743700002
Albano Machado Airport,-12.8089,15.7605
Kuito Airport,-12.404600143433,16.947399139404
Quatro de Fevereiro International Airport,-8.85837,13.2312
Malanje Airport,-9.525090217590332,16.312400817871094
Menongue Airport,-14.657600402832031,17.71980094909668
Welwitschia Mirabilis International Airport,-15.2612,12.1468
Negage Airport,-7.754509925842285,15.287699699401855
Porto Amboim Airport,-10.722,13.7655
Saurimo Airport,-9.68907,20.4319
Soyo Airport,-6.141089916229248,12.371800422668457
Sumbe Airport,-11.1679,13.8475
Lubango Mukanka International Airport,-14.924839,13.576653
Luena Airport,-11.7681,19.897699
Uige Airport,-7.60307,15.0278
Xangongo Airport,-16.755399703979492,14.965299606323242
Koulamoutou Mabimbi Airport,-1.18461,12.4413
Mouilla Ville Airport,-1.84514,11.0567
Oyem Airport,1.5431100130081177,11.581399917602539
Okondja Airport,-0.665214,13.6731
Lambarene Airport,-0.704389,10.2457
Bitam Airport,2.07564,11.4932
Port Gentil International Airport,-0.711739,8.75438
Omboue Hospital Airport,-1.57473,9.26269
Makokou Airport,0.5792109966278076,12.890899658203125
Libreville Leon M'ba International Airport,0.458951,9.41214
M'Vengue El Hadj Omar Bongo Ondimba International Airport,-1.65616,13.438
Principe Airport,1.661155,7.411081
São Tomé International Airport,0.378175,6.71215
Beira International Airport,-19.7964,34.9076
Chimoio Airport,-19.15130043029785,33.42900085449219
Inhambane Airport,-23.8764,35.408501
Lichinga Airport,-13.274,35.2663
Maputo Airport,-25.920799,32.572601
Mueda Airport,-11.6729,39.563099
Mocímboa da Praia Airport,-11.3618,40.3549
Nacala International Airport,-14.4882,40.7122
Nampula Airport,-15.1056,39.281799
Pemba Airport,-12.993302,40.524867
Quelimane Airport,-17.855499267578125,36.86909866333008
Tete Airport,-16.104799,33.640202
Vilankulo Airport,-22.018400192260742,35.31330108642578
Seychelles International Airport,-4.67434,55.521801
Praslin Island Airport,-4.319256,55.691561
Ouadi Doum Air Base,18.52793,20.188644
Abeche Airport,13.847,20.844299
Moundou Airport,8.628503,16.074241
N'Djamena International Airport,12.1337,15.034
Faya-Largeau Airport,17.917101,19.111099
Joshua Mqabuko Nkomo International Airport,-20.016284,28.622897
Buffalo Range Airport,-21.008101,31.5786
Victoria Falls International Airport,-18.097437,25.836867
Robert Gabriel Mugabe International Airport,-17.931801,31.0928
Kariba Airport,-16.5198,28.885
Mutoko Airport,-17.4319,32.184502
Masvingo International Airport,-20.0553,30.8591
Gweru - Thornhill Air Base,-19.436718,29.861945
Hwange National Park Airport,-18.6299,27.021
Chileka International Airport,-15.677189,34.972319
Dwangwa Airport,-12.517527,34.131877
Karonga Airport,-9.953571,33.893264
Kamuzu International Airport,-13.7894,33.780998
Mzuzu Airport,-11.4447,34.011799
Moshoeshoe I International Airport,-29.456277,27.554456
Arandis Airport,-22.461875,14.979322
Grootfontein Airport,-19.6022,18.1227
Katima Mulilo Airport,-17.634258,24.176688
Keetmanshoop Airport,-26.539801,18.111401
Luderitz Airport,-26.687400817871094,15.242899894714355
Mariental Airport,-24.6054,17.9254
Ondangwa Airport,-17.878201,15.9526
Oranjemund Airport,-28.5847,16.446699
Rundu Airport,-17.956499,19.7194
Tsumeb Airport,-19.262079,17.732509
Walvis Bay International Airport,-22.979332,14.647102
Eros Airport,-22.60492,17.079002
Hosea Kutako International Airport,-22.4799,17.4709
Ndjili International Airport,-4.38575,15.4446
Ndolo Airport,-4.32666015625,15.327500343323
Bandundu Airport,-3.31132,17.381701
Kikwit Airport,-5.03577,18.785601
Mbandaka Airport,0.0226000007242,18.2887001038
Gbadolite Airport,4.252745,20.975271
Gemena Airport,3.23537,19.771299
Lisala Airport,2.17066,21.496901
Bangoka International Airport,0.481639,25.337999
Matari Airport,2.82761,27.588301
Bunia Airport,1.565743,30.220685
Buta Zega Airport,2.818058,24.793997
Bukavu Kavumu Airport,-2.30898,28.8088
Goma International Airport,-1.666758,29.238037
Kindu Airport,-2.91917991638,25.915399551399997
Lubumbashi International Airport,-11.591494,27.530753
Kolwezi Airport,-10.7659,25.505699
Kalemie Airport,-5.87556,29.25
Kamina Air Base,-8.64202,25.252899
Kananga Airport,-5.90005,22.4692
Mbuji Mayi Airport,-6.121240139010001,23.569000244099996
Modibo Keita International Airport,12.5335,-7.94994
Gao International Airport,16.248466,-0.005389
Kayes Dag Dag Airport,14.482521,-11.399335
Mopti Airport,14.5128,-4.07956
Tombouktou Airport,16.730499,-3.00758
Banjul International Airport,13.338,-16.652201
Fuerteventura Airport,28.4527,-13.8638
El Hierro Airport,27.8148,-17.8871
La Palma Airport,28.626499,-17.7556
Gran Canaria Airport,27.9319,-15.3866
César Manrique-Lanzarote Airport,28.945499,-13.6052
Tenerife Sur Airport,28.0445,-16.5725
Tenerife Norte-Ciudad de La Laguna Airport,28.482752,-16.341707
Ozurgeti Air Base,41.9291,41.863499
Senaki Air Base,42.2403057198,42.0454931259
Melilla Airport,35.2798,-2.95626
Bo Airport,7.9444,-11.761
Kenema Airport,7.896364,-11.174126
Lungi International Airport,8.61644,-13.1955
Yengema Airport,8.61047,-11.0454
Osvaldo Vieira International Airport,11.894262,-15.653596
Greenville/Sinoe Airport,5.032124,-9.064236
Spriggs Payne Airport,6.28906,-10.7587
Roberts International Airport,6.23379,-10.3623
Al Massira Airport,30.322478,-9.412003
Tan Tan Airport,28.448200225830078,-11.161299705505371
Zagora Airport,30.265788,-5.860808
Bouarfa Airport,32.514306,-1.983056
Fes Saïss International Airport,33.927299,-4.97796
Moulay Ali Cherif Airport,31.9475002289,-4.39833021164
Bassatine Airport,33.879101,-5.51512
Oujda Angads Airport,34.789558,-1.926041
Smara Airport,26.731987,-11.683655
Beni Mellal Airport,32.401895,-6.315905
Rabat-Salé Airport,34.051498,-6.75152
Dakhla Airport,23.7183,-15.932
Essaouira-Mogador Airport,31.397499,-9.68167
Laayoune Hassan I International Airport,27.142467,-13.224947
Mohammed V International Airport,33.3675,-7.58997
Nador Al Aaroui International Airport,34.9888,-3.02821
Marrakesh Menara Airport,31.604807,-8.035788
Kenitra Air Base,34.298901,-6.59588
Ouarzazate International Airport,30.9391,-6.90943
Cherif Al Idrissi Airport,35.177101,-3.83952
Sania Ramel Airport,35.594299,-5.32002
Tangier Ibn Battuta Airport,35.731741,-5.921459
Blaise Diagne International Airport,14.670878,-17.072829
Ziguinchor Airport,12.55559,-16.283298
Cap Skirring Airport,12.39533,-16.748
Kaolack Airport,14.146900177001953,-16.051300048828125
Léopold Sédar Senghor International Airport,14.742337,-17.479222
Ouro Sogui Airport,15.5936,-13.3228
Saint Louis Airport,16.049814,-16.461039
Bakel Airport,14.847299575805664,-12.468299865722656
Kédougou Airport,12.57229995727539,-12.22029972076416
Tambacounda Airport,13.7368,-13.6531
Nouakchott–Oumtounsy International Airport,18.31,-15.969722
Atar International Airport,20.505823,-13.043744
Nouadhibou International Airport,20.932404,-17.030199
(Duplicate)Kasteli Hellenic Air Force Base,35.191341,25.326588
Ahmed Sékou Touré International Airport,9.57689,-13.612
Amílcar Cabral International Airport,16.7414,-22.9494
Aristides Pereira International Airport,16.136499,-22.888901
Maio Airport,15.155900001525879,-23.213699340820312
Nelson Mandela International Airport,14.941126,-23.484728
Preguiça Airport,16.588852,-24.284132
Cesaria Evora International Airport,16.833363,-25.055308
Addis Ababa Bole International Airport,8.97789,38.799301
Arba Minch Airport,6.03939,37.5905
Axum Airport,14.1468,38.7728
Bahir Dar Airport,11.6081,37.321602
Aba Tenna Dejazmach Yilma International Airport,9.623549,41.855027
Gambela Airport,8.12876,34.563099
Gondar Airport,12.5199,37.433998
Gode Airport,5.93513011932,43.5786018372
Harar Meda Airport,8.7163,39.0059
Gerad Wilwal International Airport,9.331907,42.911811
Baco Airport,5.749655,36.560165
Jimma Airport,7.66609001159668,36.81660079956055
Kebri Dahar Airport,6.732577,44.241339
Hawassa International Airport,7.100611,38.396455
Alula Aba Nega Airport,13.4674,39.533501
Asosa Airport,10.018500328063965,34.586299896240234
Bujumbura Melchior Ndadaye International Airport,-3.32402,29.318501
Gitega Airport,-3.417209,29.911308
Bender Qassim International Airport,11.275235,49.139231
Egal International Airport,9.514082,44.083469
Berbera Airport,10.385035,44.936723
Kismayo Airport,-0.377353,42.459202
Aden Adde International Airport,2.01444,45.304699
Djibouti-Ambouli Airport,11.5473,43.1595
Birma Air Base,30.836599,30.936001
Gebel El Basur Air Base,30.540501,30.5602
Al Mansurah Airbase,30.9676,31.4342
Abu Suwayr Air Base,30.57270050048828,32.095298767089844
Bardawil International Airport,30.410714,33.15535
Bilbeis Air Base,30.394899,31.6014
Quesna Airport,30.579,31.1292
El Alamein International Airport,30.924324,28.46161
El Arish International Airport,31.055324,33.827964
Asyut International Airport,27.045962,31.01276
Almaza Air Force Base,30.091702,31.359739
Alexandria International Airport,30.93249,29.696437
Abu Simbel Airport,22.374402,31.609881
Bani Sweif Air Base,29.20224,31.013471
Cairo International Airport,30.111534,31.396694
Capital International Airport,30.06465,31.839974
Cairo West Air Base,30.116431,30.915535
Hurghada International Airport,27.176776,33.796692
El Jora Airport,31.078138,34.153131
Jiyanklis Air Base,30.819799,30.1912
Ismailia Air Base,30.597951,32.235689
Luxor International Airport,25.671018,32.706446
Marsa Alam International Airport,25.555548,34.59245
Mersa Matruh International Airport,31.324313,27.22227
Port Said International Airport,31.279285,32.240582
Saint Catherine International Airport,28.684292,34.064409
Sohag International Airport,26.342515,31.743017
Sharm El Sheikh International Airport,27.977272,34.394717
Aswan International Airport,23.961075,32.820382
Sphinx International Airport,30.108179,30.895728
Taba International Airport,29.594496,34.775752
Asmara International Airport,15.2919,38.910702
Massawa International Airport,15.67,39.370098
Assab International Airport,13.0718,42.645
Juba International Airport,4.87201,31.601101
Amboseli Airport,-2.645050048828125,37.25310134887695
Eldoret International Airport,0.404458,35.238899
Jomo Kenyatta International Airport,-1.31923997402,36.9277992249
Kisumu International Airport,-0.086139,34.728901
Kitale Airport,0.971989,34.958599
Lokichogio Airport,4.20412,34.348202
Lodwar Airport,3.12197,35.6087
Manda Airport,-2.252431,40.912892
Malindi International Airport,-3.22931,40.1017
Moi International Airport,-4.03483,39.5942
Mara Serena Lodge Airstrip,-1.406111,35.008057
Nanyuki Airport,-0.062399,37.041008
Nairobi Wilson Airport,-1.321720004081726,36.81480026245117
Laikipia Air Base,0.032933,37.026901
Moi Air Base,-1.27727,36.862301
Wajir Airport,1.73324,40.091599
Matan al-Sarra Air Base,21.6877,21.8309
Bombah Airport,32.4529,23.118601
Okba Ibn Nafa Air Base,32.473400116,11.897899627700001
Sirt International Airport / Ghardabiya Airbase,31.058578,16.597095
Ghat Airport,25.1455993652,10.142600059500001
Kufra Airport,24.178699493408203,23.31399917602539
Benina International Airport,32.096802,20.269501
Mitiga International Airport,32.89177,13.287878
Al Abraq International Airport,32.789036,21.954864
Sabha Airport,26.992452,14.466162
Marsa al Brega Airport,30.378099,19.576401
Ghadames East Airport,30.151699,9.71531
Udbina Airfield,44.557598,15.7744
Gisenyi Airport,-1.6771999597549438,29.258899688720703
Kigali International Airport,-1.96863,30.1395
Kamembe Airport,-2.462239980697632,28.907899856567383
Dongola Airport,19.153900146499996,30.430099487299998
Paloich Airport,10.529167,32.500556
El Fasher Airport,13.614899635314941,25.324600219726562
Kassala Airport,15.387499809265137,36.328800201416016
Merowe Airport,18.443333,31.843333
Nyala Airport,12.0535,24.9562
El-Obeid Airport,13.1532,30.2327
Port Sudan New International Airport,19.434558,37.234125
Sabera Geneina Airport,13.4774,22.53722
Khartoum International Airport,15.5895,32.5532
Malakal International Airport,9.558739,31.651937
Wau Airport,7.72583,27.975
Arusha Airport,-3.3677899837493896,36.63330078125
Julius Nyerere International Airport,-6.873499,39.207288
Dodoma Airport,-6.17044,35.752602
Songwe Airport,-8.919942,33.273981
Iringa Airport,-7.66863,35.752102
Kilimanjaro International Airport,-3.427049,37.07353
Lake Manyara Airport,-3.37631,35.818298
Mtwara Airport,-10.336204,40.181997
Mwanza International Airport,-2.446563,32.936049
Pemba Airport,-5.25726,39.811401
Tanga Airport,-5.09236,39.071201
Abeid Amani Karume International Airport,-6.22202,39.224899
Kalocsa-Foktő Airfield,46.55149,18.942299
Arua Airport,3.049152,30.911714
Entebbe International Airport,0.042386,32.443501
Gulu Airport,2.8055601119995117,32.27180099487305
Soroti Airport,1.7276899814605713,33.622798919677734
Chengdu Huaizhou Airport,30.677339,104.529397
Indigo Bay Lodge Airport,-21.708,35.452801
Dhoho International Airport,-7.750278,111.947222
Old Nabire Airport,-3.368586,135.496702
Tabing Airport,-0.874989,100.351997
Susilo Airport,0.063851,111.473572
Bilorai Airport,-3.739503,137.031183
Jakkur Aerodrome,13.07674,77.597645
Maharshi Valmiki International Airport,26.747736,82.163664
Sindhudurg Airport,16.002552,73.529846
Navi Mumbai International Airport,18.984597,73.065253
Rashtrakavi Kuvempu Airport,13.858024,75.618868
Itanagar Donyi Polo Hollongi Airport,26.96683,93.638792
Sant Gadge Baba Yavatmal Airport,20.395781,78.216272
Noida International Airport,28.179868,77.611843
Maa Mahamaya Airport,22.98753,83.19612
H1 New Air Base,33.816262,41.436712
H2 Air Base,33.36372375488281,40.5880241394043
H3 Air Base,32.92938232421875,39.74510192871094
H3 Northwest AFB,33.07456970214844,39.59961700439453
H3 Southwest Air Base,32.74492645263672,39.59955596923828
Jalibah Southeast Air Base,30.546518,46.602779
Kut Al Hayy East Air Base,32.11684036254883,46.382240295410156
Qalat Salih Air Base,31.456581115722656,47.289791107177734
Rasheed Air Base,33.279327,44.493706
Ruwayshid Air Base,32.40611267089844,39.12361145019531
Sahl Sinjar Air Base,35.8592643737793,42.14213943481445
Salum Air Base,34.1640739440918,44.7469482421875
Samarra East Air Base / Dhuluiya Airport,34.16554,44.264304
Tal Ashtah New Air Base,35.139721,44.133888
Tuz Khurmatu Air Base,34.93722152709961,44.4827766418457
Oghab 44 Airbase,28.04816,55.521791
King Feisal Air Base,30.3435,36.147701
Boulder City Municipal Airport,35.947161,-114.858799
Mesquite Airport,36.833105,-114.055928
Van Zandt County Regional Airport,32.681499,-95.9841
South Alabama Regional At Bill Benton Field Airport,31.3088,-86.393799
Lehigh Valley International Airport,40.651773,-75.442797
Abilene Regional Airport,32.4113006592,-99.68190002440001
Albuquerque International Sunport,35.039976,-106.608925
Aberdeen Regional Airport,45.449100494384766,-98.42179870605469
Southwest Georgia Regional Airport,31.532946,-84.196215
Nantucket Memorial Airport,41.25310135,-70.06020355
Waco Regional Airport,31.611299514770508,-97.23049926757812
California Redwood Coast-Humboldt County Airport,40.978101,-124.109
Atlantic City International Airport,39.456201,-74.577511
Ada Regional Airport,34.805214,-96.671988
Joint Base Andrews,38.810799,-76.866997
Double Eagle II Airport,35.145199,-106.794998
Alexandria International Airport,31.325828,-92.546702
Perot Field/Fort Worth Alliance Airport,32.99044,-97.31947
Allegheny County Airport,40.354401,-79.930199
Augusta Regional At Bush Field,33.3699,-81.9645
Athens Ben Epps Airport,33.948842,-83.325634
Alliance Municipal Airport,42.052543,-102.803965
Akron Fulton International Airport,41.037355,-81.46784
Albany International Airport,42.748299,-73.801697
Alice International Airport,27.7409,-98.026901
Alamogordo White Sands Regional Airport,32.837818,-105.993149
St Louis Regional Airport,38.89030075069999,-90.0459976196
Waterloo Regional Airport,42.557098388671875,-92.40029907226562
San Luis Valley Regional Airport/Bergman Field,37.434898,-105.866997
Walla Walla Regional Airport,46.09489822,-118.288002
Rick Husband Amarillo International Airport,35.217857,-101.706444
Anniston Regional Airport,33.5882,-85.8581
Anderson Regional Airport,34.4945983887,-82.70939636230001
Altoona Blair County Airport,40.296398,-78.32
Centennial Airport,39.57009888,-104.848999
Naples Municipal Airport,26.1525993347,-81.7752990723
Phillips Army Air Field,39.466202,-76.1688
Alpena County Regional Airport,45.0780983,-83.56030273
Acadiana Regional Airport,30.0378,-91.883904
Watertown International Airport,43.991901,-76.021698
Aspen-Pitkin County Airport (Sardy Field),39.223202,-106.869003
Astoria Regional Airport,46.158000946,-123.878997803
Hartsfield Jackson Atlanta International Airport,33.6367,-84.428101
Appleton International Airport,44.258515,-88.519
Watertown Regional Airport,44.91400146,-97.15470123
Augusta State Airport,44.320598602299995,-69.7973022461
Austin Bergstrom International Airport,30.197535,-97.662015
Wausau Downtown Airport,44.9262008667,-89.6266021729
Asheville Regional Airport,35.435488,-82.541853
Wilkes-Barre/Scranton International Airport,41.337064,-75.724232
Arlington Municipal Airport,48.161448,-122.158442
Chandler Field,45.866299,-95.394699
Kalamazoo/Battle Creek International Airport,42.232105,-85.549637
Beale Air Force Base,39.136101,-121.436996
Barksdale Air Force Base,32.501801,-93.662697
Westfield-Barnes Regional Airport,42.157799,-72.715599
Columbus Municipal Airport,39.262386,-85.895576
New Braunfels National Airport,29.7045,-98.042198
Curtis Field,31.178931,-99.324732
Branson Airport,36.532082,-93.200544
Bryce Canyon Airport,37.706401825,-112.144996643
Boca Raton Airport,26.3785,-80.107697
Baudette International Airport,48.7284011841,-94.612197876
Bradley International Airport,41.938555,-72.688016
Igor I Sikorsky Memorial Airport,41.163502,-73.126198
Laurence G Hanscom Field,42.470001,-71.289001
Bradford Regional Airport,41.8031005859375,-78.64009857177734
Western Neb. Rgnl/William B. Heilig Airport,41.87400055,-103.5960007
King County International Airport - Boeing Field,47.527042,-122.29995
Meadows Field,35.433601,-119.056999
Mobile Downtown Airport,30.626800537100003,-88.06809997559999
Greater Binghamton/Edwin A Link field,42.20869827,-75.97979736
Bangor International Airport,44.806364,-68.826668
Hancock County-Bar Harbor Airport,44.45000076,-68.3615036
Birmingham-Shuttlesworth International Airport,33.562877,-86.750712
Biggs Army Air Field (Fort Bliss),31.84950066,-106.3799973
Eastern Sierra Regional Airport,37.3731,-118.363998
Billings Logan International Airport,45.807824,-108.533667
Bismarck Municipal Airport,46.772734,-100.746874
Keesler Air Force Base,30.4104003906,-88.92440032959999
Rocky Mountain Metropolitan Airport,39.908798,-105.116997
Bemidji Regional Airport,47.50939941,-94.93370056
Baker City Municipal Airport,44.837299346900004,-117.808998108
Buckley Space Force Base,39.701698,-104.751999
Burke Lakefront Airport,41.51750183105469,-81.68329620361328
Raleigh County Memorial Airport,37.7873,-81.124199
Mercer County Airport,37.295799,-81.207703
Blythe Airport,33.6192016602,-114.717002869
Bellingham International Airport,48.79280090332031,-122.53800201416016
Scott AFB/Midamerica Airport,38.5452,-89.835197
Monroe County Airport,39.145999908447266,-86.61669921875
Central Illinois Regional Airport at Bloomington-Normal,40.4771,-88.915901
Nashville International Airport,36.1245,-86.6782
Burns Municipal Airport,43.590463,-118.955154
Boise Air Terminal/Gowen Field,43.5644,-116.223
General Edward Lawrence Logan International Airport,42.36197,-71.0079
Miley Memorial Field,42.58509827,-110.1110001
Ozark Regional Airport,36.3689002991,-92.47049713130001
Jack Brooks Regional Airport,29.9508,-94.020699
Brunswick Golden Isles Airport,31.258801,-81.466499
Brainerd Lakes Regional Airport,46.402861,-94.129727
Southeast Iowa Regional Airport,40.783199310302734,-91.12550354003906
Brownsville South Padre Island International Airport,25.907238,-97.425235
Battle Creek Executive Airport at Kellogg Field,42.307301,-85.251503
Bert Mooney Airport,45.95479965209961,-112.49700164794922
Baton Rouge Metropolitan Airport,30.533199,-91.149597
Patrick Leahy Burlington International Airport,44.471901,-73.153297
Buffalo Niagara International Airport,42.940498,-78.732201
Bobe Hope / Hollywood Burbank Airport,34.202834,-118.35805
Beaver County Airport,40.772499,-80.391403
Beverly Regional Airport,42.584202,-70.916496
Bowling Green Warren County Regional Airport,36.964500427199994,-86.41970062259999
Baltimore/Washington International Thurgood Marshall Airport,39.1754,-76.668297
Brunswick Executive Airport,43.89220047,-69.93859863
Arkansas International Airport,35.9642982483,-89.94400024410001
Burley Municipal Airport,42.542598724399994,-113.772003174
Bicycle Lake Army Air Field,35.2804985046,-116.629997253
Bozeman Yellowstone International Airport,45.778853,-111.153711
Columbia Metropolitan Airport,33.938172,-81.117499
Akron Canton Regional Airport,40.916099548339844,-81.44219970703125
Caribou Municipal Airport,46.871498,-68.017899
Columbus Air Force Base,33.643799,-88.443802
Buchanan Field,37.9897,-122.056999
Northeast Iowa Regional Airport,43.0726013184,-92.6108016968
Cedar City Regional Airport,37.70100021362305,-113.0989990234375
Chadron Municipal Airport,42.837601,-103.095001
Childress Municipal Airport,34.4337997437,-100.288002014
Jack Mc Namara Field Airport,41.778929,-124.236403
Westover Metropolitan Airport / Westover Air Reserve Base,42.194,-72.534798
Bob Sikes Airport,30.778799057,-86.522102356
Cortez Municipal Airport,37.303001,-108.627998
Cuyahoga County Airport,41.5651016235,-81.4863967896
Cape Girardeau Regional Airport,37.2253,-89.570801
Chattanooga Metropolitan Airport (Lovell Field),35.035301,-85.203796
Charlottesville Albemarle Airport,38.13859939575195,-78.4529037475586
Charleston International Airport,32.896159,-80.038151
The Eastern Iowa Airport,41.884701,-91.7108
Chippewa County International Airport,46.242038,-84.462082
North Central West Virginia Airport,39.2966,-80.228104
Cleveland Hopkins International Airport,41.411701,-81.8498
Easterwood Field,30.5886,-96.3638
William R Fairchild International Airport,48.120201,-123.5
Charlotte Douglas International Airport,35.2140007019043,-80.94309997558594
Camarillo International Airport,34.213699,-119.094002
John Glenn Columbus International Airport,39.998001,-82.891899
University of Illinois Willard Airport,40.039819,-88.276249
Houghton County Memorial Airport,47.168399810791016,-88.48909759521484
Cavern City Air Terminal,32.337501525878906,-104.26300048828125
Chanute Martin Johnson Airport,37.668173,-95.486727
Canyonlands Regional Airport,38.755001,-109.754997
Yellowstone Regional Airport,44.520199,-109.024002
Coeur D'Alene Airport - Pappy Boyington Field,47.7743,-116.82
Patrick Space Force Base,28.2349,-80.6101
Concord Municipal Airport,43.20270157,-71.50229645
City of Colorado Springs Municipal Airport,38.805801,-104.700996
Columbia Regional Airport,38.8181,-92.219597
Casper-Natrona County International Airport,42.907381,-106.461609
Grand Strand Airport,33.8116989136,-78.72389984130001
Jacksonville Executive at Craig Airport,30.3362998962,-81.51439666750001
Corpus Christi International Airport,27.770399,-97.501198
McClellan-Palomar Airport,33.1283,-117.279999
Yeager Airport,38.3731,-81.593201
Columbus Airport,32.516415,-84.939602
Crossville Memorial Airport Whitson Field,35.95131,-85.08499
Cut Bank International Airport,48.608657,-112.378183
Jim Hamilton L.B. Owens Airport,33.970500946,-80.9952011108
Cincinnati Northern Kentucky International Airport,39.048801,-84.667801
Clovis Municipal Airport,34.426594,-103.078794
Corvallis Municipal Airport,44.49720001,-123.2900009
Cannon Air Force Base,34.382801,-103.321999
Central Wisconsin Airport,44.777448,-89.670238
Conroe-North Houston Regional Airport,30.351801,-95.414497
Carson Airport,39.194331,-119.734312
Cheyenne Regional Jerry Olson Field,41.155701,-104.811997
Davison Army Air Field,38.715000152600005,-77.1809997559
Daytona Beach International Airport,29.18255,-81.059464
Barstow Daggett Airport,34.85369873,-116.7870026
Dallas Love Field,32.844776,-96.847653
Danville Regional Airport,36.572899,-79.336098
James M. Cox Dayton International Airport,39.902401,-84.219398
Dubuque Regional Airport,42.402,-90.709503
Ronald Reagan Washington National Airport,38.8521,-77.037697
Dodge City Regional Airport,37.76340103149414,-99.9655990600586
Decatur Airport,39.834598541259766,-88.8656997680664
Denver International Airport,39.860027,-104.673792
Coleman A. Young Municipal Airport,42.40919876,-83.00990295
Dallas Fort Worth International Airport,32.896801,-97.038002
Dothan Regional Airport,31.321300506591797,-85.44960021972656
Dalhart Municipal Airport,36.0225982666,-102.54699707
Dickinson Theodore Roosevelt Regional Airport,46.797533,-102.801905
Laughlin Air Force Base,29.359501,-100.778002
Duluth International Airport,46.842098,-92.193604
Columbia Gorge Regional Airport,45.620979,-121.170777
Davis Monthan Air Force Base,32.1665000916,-110.883003235
Deming Municipal Airport,32.262298584,-107.721000671
Daniel Field,33.4664993286,-82.0393981934
Dover Civil Air Terminal/Dover Air Force Base,39.129501,-75.466003
Dupage Airport,41.90779877,-88.24859619
Desert Rock Airport,36.6194,-116.032997
Beauregard Regional Airport,30.831699,-93.339897
Durango La Plata County Airport,37.151501,-107.753998
Del Rio International Airport,29.3742008209,-100.927001953
Des Moines International Airport,41.534027,-93.656719
Destin Executive Airport,30.400101,-86.471497
Detroit Metropolitan Wayne County Airport,42.21377,-83.353786
Durant Regional Airport - Eaker Field,33.939675,-96.395072
Bisbee Douglas International Airport,31.464139,-109.60456
DuBois Regional Airport,41.17829895,-78.8986969
Devils Lake Regional Airport,48.115454,-98.908796
Danbury Municipal Airport,41.371656,-73.482227
Dyess Air Force Base,32.420799,-99.854599
Kearney Regional Airport,40.727001,-99.006798
Pangborn Memorial Airport,47.398899,-120.207001
Chippewa Valley Regional Airport,44.86579895019531,-91.48429870605469
Elizabeth City Regional Airport & Coast Guard Air Station,36.260601,-76.174599
Northwest Florida Beaches International Airport,30.357106,-85.795414
Edwards Air Force Base,34.910781,-117.886391
Needles Airport,34.7663002014,-114.623001099
Dillant Hopkins Airport,42.898399,-72.270798
Shelby County Airport,33.17699814,-86.78279877
Ellington Airport,29.607299804700002,-95.1587982178
Eagle County Regional Airport,39.64260101,-106.9179993
Duke Field,30.65040016,-86.52290344
Murray Field,40.803398,-124.112999
Elkins-Randolph County Regional Airport,38.889759,-79.857651
Elko Regional Airport,40.82490158081055,-115.79199981689453
South Arkansas Regional Airport at Goodwin Field,33.221001,-92.813301
Elmira Corning Regional Airport,42.1599006652832,-76.8916015625
Ely Municipal Airport,47.82450104,-91.83070374
El Paso International Airport,31.809908,-106.375607
Ely Airport Yelland Field,39.29970169,-114.8420029
Vance Air Force Base,36.339199,-97.916496
Wendover Airport,40.7187004089,-114.03099823
Kenosha Regional Airport,42.59569931,-87.92780304
Erie International Tom Ridge Field,42.083127,-80.173867
Delta County Airport,45.723199,-87.088623
Esler Army Airfield / Esler Regional Airport,31.394266,-92.294082
Eugene Airport,44.124599,-123.211998
Evansville Regional Airport,38.0369987488,-87.5324020386
Evanston-Uinta County Airport-Burns Field,41.27479935,-111.0350037
New Bedford Regional Airport,41.67610168457031,-70.95690155029297
Coastal Carolina Regional Airport,35.0730018616,-77.04290008539999
Newark Liberty International Airport,40.692501,-74.168701
Key West International Airport,24.556101,-81.759598
Felker Army Air Field,37.1325,-76.608803
Hector International Airport,46.9207,-96.815804
Fresno Yosemite International Airport,36.775767,-119.718018
Fayetteville Regional Airport - Grannis Field,34.991199,-78.880302
Simmons Army Air Field,35.13180161,-78.93669891
Butts AAF (Fort Carson) Air Field,38.67839813,-104.7570038
Findlay Airport,41.013500213600004,-83.66870117190001
Wright-Patterson Air Force Base,39.826099,-84.048302
Friday Harbor Airport,48.523654,-123.024645
Sierra Vista Municipal Airport / Libby Army Air Field,31.587383,-110.348225
Venango Regional Airport,41.3778991699,-79.8603973389
Flagstaff Pulliam Airport,35.139757,-111.669826
Fort Lauderdale Hollywood International Airport,26.072599,-80.152702
Florence Regional Airport,34.18539810180664,-79.7238998413086
Fort Meade Executive Airport,39.0854,-76.759399
Four Corners Regional Airport,36.741199,-108.230003
Page Field,26.58659935,-81.86329650879999
Northern Colorado Regional Airport,40.44969,-105.011272
Bishop International Airport,42.969294,-83.743355
Fort Dodge Regional Airport,42.552624,-94.191237
Topeka Regional Airport,38.950901,-95.663597
Treasure Coast International Airport,27.4951,-80.368301
Republic Airport,40.728576,-73.414267
Marshall Army Air Field,39.053021,-96.764202
Sioux Falls Regional Airport,43.585463,-96.741152
Henry Post Army Air Field,34.649799,-98.402199
Fort Smith Regional Airport,35.336601,-94.367401
Fort Stockton Pecos County Airport,30.9157009125,-102.916000366
Godman Army Air Field,37.907100677500004,-85.9720993042
Fort Worth Meacham International Airport,32.819919,-97.360818
Fulton County Airport Brown Field,33.7790985107,-84.5214004517
Fort Wayne International Airport,40.978896,-85.194465
Fort Lauderdale Executive Airport,26.1972999573,-80.1707000732
Drake Field,36.00510025024414,-94.17009735107422
Jalal-Abad Airport,40.944401,72.977798
Northeast Wyoming Regional Airport,44.3489,-105.539001
Garden City Regional Airport,37.9275016785,-100.723999023
Grand Canyon National Park Airport,35.9524,-112.147003
Dawson Community Airport,47.137658,-104.80691
Spokane International Airport,47.6199,-117.533997
Grand Forks International Airport,47.949299,-97.176102
Floyd Bennett Memorial Airport,43.3412017822,-73.6102981567
East Texas Regional Airport,32.38399887084961,-94.71150207519531
Glasgow Valley County Airport Wokal Field,48.212502,-106.614998
Grand Junction Regional Airport,39.126663,-108.529387
Goodland Municipal Airport,39.370701,-101.699753
Mid Delta Regional Airport,33.482899,-90.985603
Scholes International At Galveston Airport,29.265301,-94.860397
Greenville Downtown Airport,34.847903,-82.350217
Gainesville Regional Airport,29.6900997162,-82.2717971802
Groton New London Airport,41.330101,-72.045097
Glacier Park International Airport,48.310501,-114.255997
Gulfport Biloxi International Airport,30.405582,-89.069836
Austin Straubel International Airport,44.483459,-88.130805
Gray Army Air Field,47.07920074,-122.5810013
Central Nebraska Regional Airport,40.967498779296875,-98.30960083007812
Killeen Regional Airport / Robert Gray Army Airfield,31.0672,-97.828903
Gerald R. Ford International Airport,42.880798,-85.522797
Seymour Johnson Air Force Base,35.339401,-77.960602
Piedmont Triad International Airport,36.09937,-79.937262
Greenville-Spartanburg International Airport,34.895699,-82.218903
Wheeler Sack Army Air Field,44.05559921,-75.71949768
Great Falls International Airport,47.481998,-111.371002
Golden Triangle Regional Airport,33.450298,-88.5914
Gunnison Crested Butte Regional Airport,38.534672,-106.934566
Gallup Municipal Airport,35.511653,-108.788166
Grissom Air Reserve Base,40.648102,-86.1521
Guymon Municipal Airport,36.6851005554,-101.508003235
Greenwood–Leflore Airport,33.495025,-90.088204
North Texas Regional Airport Perrin Field,33.7141,-96.673698
Gary Chicago International Airport,41.617087,-87.413206
Dara Sakor International Airport,10.914244,103.226652
Techo International Airport,11.359987,104.921272
Hattiesburg Bobby L Chain Municipal Airport,31.26479912,-89.25279999
Hobart Regional Airport,34.991317,-99.051313
Yampa Valley Airport,40.481201,-107.218002
Manassas Regional Airport/Harry P. Davis Field,38.721401,-77.515404
Hartford Brainard Airport,41.736698150635,-72.649398803711
Hagerstown Regional Richard A Henson Field,39.708771,-77.728014
Jack Northrop Field Hawthorne Municipal Airport,33.922798,-118.334999
Range Regional Airport,47.384831,-92.836905
Hill Air Force Base,41.12403,-111.973086
Lake Havasu City Airport,34.570506,-114.357745
Portland Hillsboro Airport,45.540401,-122.949997
Hickory Regional Airport,35.74110031,-81.38950348
Wheeling Ohio County Airport,40.1749992371,-80.6463012695
Helena Regional Airport,46.6068,-111.983002
Holloman Air Force Base,32.852501,-106.107002
Lea County Regional Airport,32.6875,-103.217003
Huron Regional Airport,44.385201,-98.2285
Campbell Army Airfield (Fort Campbell),36.674154,-87.48974
Memorial Field Airport,34.4788,-93.096262
William P. Hobby Airport,29.645336,-95.276812
Westchester County Airport,41.06700134277344,-73.70760345458984
Bowerman Airport,46.971199035599994,-123.93699646
Valley International Airport,26.228500366210938,-97.65440368652344
Boone County Airport,36.26150131225586,-93.15470123291016
Hurlburt Field,30.427799,-86.689301
Homestead Air Reserve Base,25.4886,-80.383598
Huntsville International Airport,34.636244,-86.774378
Tri-State Airport / Milton J. Ferguson Field,38.366699,-82.557999
Redstone Army Air Field,34.67869949,-86.68479919
"Terre Haute Regional Airport, Hulman Field",39.4515,-87.307602
Houlton International Airport,46.1231002808,-67.792098999
Hutchinson Municipal Airport,38.0654983521,-97.86060333250002
Tweed New Haven Airport,41.262869,-72.887694
Havre City County Airport,48.541387,-109.762859
North Perry Airport,26.0012,-80.2407
Hilton Head Airport,32.2244,-80.697502
Cape Cod Gateway Airport,41.6693,-70.280403
San Marcos Regional Airport,29.8927,-97.862999
Sawyer County Airport,46.025199890100005,-91.44429779050002
Hays Regional Airport,38.844521,-99.273148
Northeast Ohio Regional Airport,41.778,-80.695503
Central Kentucky Regional Airport,37.630798,-84.332298
McConnell Air Force Base,37.621899,-97.268204
Washington Dulles International Airport,38.9445,-77.455803
Niagara Falls International Airport,43.1073,-78.946198
George Bush Intercontinental Airport,29.9844,-95.3414
Wichita Dwight D. Eisenhower National Airport,37.650314,-97.428583
Idaho Falls Regional Airport,43.514599,-112.070999
Laughlin Bullhead International Airport,35.154726,-114.559322
Kingman Airport,35.259499,-113.938004
Greater Kankakee Airport,41.07139968869999,-87.8462982178
Wilmington Airport,39.678699,-75.606499
Wilmington International Airport,34.271719,-77.904644
Wilmington Airpark,39.427898407,-83.792098999
Ford Airport,45.81911,-88.114557
Indianapolis International Airport,39.7173,-86.294403
Winkler County Airport,31.779600143399996,-103.200996399
Falls International Airport,48.566200256347656,-93.4030990600586
Smith Reynolds Airport,36.13370132446289,-80.22200012207031
Winslow Lindbergh Regional Airport,35.021900177,-110.722999573
Imperial County Airport,32.83539,-115.574026
Williamsport Regional Airport,41.242126,-76.92245
Kirksville Regional Airport,40.09349822998047,-92.5448989868164
Kissimmee Gateway Airport,28.2898006439,-81.4371032715
Kinston Regional Jetport At Stallings Field,35.331401825,-77.60880279540001
Long Island MacArthur Airport,40.796324,-73.101703
Ithaca Tompkins Regional Airport,42.49100112915039,-76.4583969116211
Mesa Gateway Airport,33.3078,-111.654999
Jackson Hole Airport,43.6073,-110.737999
Jackson-Medgar Wiley Evers International Airport,32.311199,-90.075897
Jacksonville International Airport,30.492469,-81.687813
Jonesboro Municipal Airport,35.83169937133789,-90.64640045166016
Kimble County Airport,30.5112991333,-99.7634963989
John F. Kennedy International Airport,40.639447,-73.779317
Chautauqua County-Jamestown Airport,42.15425,-79.254008
Julian Carroll Airport,37.59389877319336,-83.31729888916016
Joplin Regional Airport,37.151798,-94.498299
Jamestown Regional Airport,46.92969894,-98.67819977
Johnston Regional Airport,35.540901,-78.390297
Concord-Padgett Regional Airport,35.387798,-80.709099
John Murtha Johnstown Cambria County Airport,40.31610107421875,-78.83390045166016
Mid-Way Regional Airport,32.4587,-96.912399
Jackson County Airport/Reynolds Field,42.260509,-84.463019
Southwest Washington Regional Airport,46.11800003049999,-122.898002625
Bakersfield International Airport,35.324799,-118.996002
Southeast Colorado Regional Airport,38.066407,-102.691373
Purdue University Airport,40.412875,-86.939363
Lakeland Linder International Airport,27.989113,-82.018521
Capital Region International Airport,42.777582,-84.585721
Laramie Regional Airport,41.31209945678711,-105.67500305175781
Harry Reid International Airport,36.083361,-115.151817
Lawton Fort Sill Regional Airport,34.567699,-98.416603
Los Angeles International Airport,33.942501,-118.407997
Lubbock Preston Smith International Airport,33.663601,-101.822998
Arnold Palmer Regional Airport,40.275902,-79.4048
North Platte Regional Airport Lee Bird Field,41.12620163,-100.6839981
Liberal Mid-America Regional Airport,37.0442009,-100.9599991
Lumberton Regional Airport,34.610773,-79.05943
Texas Gulf Coast Regional Airport,29.108601,-95.462097
Lake Charles Regional Airport,30.126100540161133,-93.22329711914062
Rickenbacker International Airport,39.813801,-82.927803
Lebanon Municipal Airport,43.626098632799994,-72.30419921880001
Leesburg International Airport,28.82309914,-81.80870056
Blue Grass Airport,38.035066,-84.606738
Langley Air Force Base,37.082901,-76.360497
Angelina County Airport,31.2339992523,-94.75
Lafayette Regional Airport,30.205299,-91.987602
LaGuardia Airport,40.777199,-73.872597
Long Beach International Airport,33.816523,-118.149891
Logan-Cache Airport,41.7911987305,-111.851997375
Bill & Hillary Clinton National Airport/Adams Field,34.729222,-92.223591
Monticello Municipal Ellis Field,33.638599,-91.750999
Crater Lake-Klamath Regional Airport,42.156101,-121.733002
Hunt Field,42.815201,-108.730003
Lincoln Airport,40.844882,-96.76178
Lancaster Airport,40.121700286865234,-76.29609680175781
Derby Field,40.0663986206,-118.565002441
Bowman Field,38.2280006409,-85.6636962891
London-Corbin Airport/Magee Field,37.0821990967,-84.08489990230001
Laredo International Airport,27.5438,-99.461601
Little Rock Air Force Base,34.916900634799994,-92.14969635010002
Las Cruces International Airport,32.289398,-106.921997
La Crosse Regional Airport,43.879002,-91.256699
Lawson Army Air Field,32.332546,-84.988003
Nellis Air Force Base,36.2361984253,-115.033996582
Altus Air Force Base,34.667099,-99.266701
Luke Air Force Base,33.535,-112.383003
Cincinnati Municipal Airport Lunken Field,39.102357,-84.418945
Mission Field,45.6994018555,-110.447998047
Las Vegas Municipal Airport,35.654202,-105.141998
Greenbrier Valley Airport,37.857914,-80.400438
Lawrence Municipal Airport,42.717201232899995,-71.1233978271
Lewiston Nez Perce County Airport,46.3745002746582,-117.01499938964844
Lewistown Municipal Airport,47.048429,-109.466143
Lynchburg Regional Airport - Preston Glenn Field,37.326698,-79.200401
Midland International Air and Space Port,31.942499,-102.202003
Mobridge Municipal Airport,45.54650116,-100.4079971
MBS International Airport,43.533181,-84.083104
McComb-Pike County Airport / John E Lewis Field,31.178499,-90.471901
McClellan Airfield,38.667599,-121.401001
Merced Regional Macready Field,37.284698,-120.514
MacDill Air Force Base,27.8493,-82.521202
Kansas City International Airport,39.2976,-94.713898
McCook Ben Nelson Regional Airport,40.207787,-100.592794
Middle Georgia Regional Airport,32.69279861450195,-83.64920043945312
Orlando International Airport,28.429399490356445,-81.30899810791016
Mason City Municipal Airport,43.159801,-93.329716
Southern Illinois Airport,37.778099,-89.251999
Harrisburg International Airport,40.192838,-76.762333
Chicago Midway International Airport,41.785999,-87.752403
Key Field / Meridian Regional Airport,32.3326,-88.7519
Memphis International Airport,35.043845,-89.97634
Castle Airport,37.38050079,-120.5680008
Mansfield Lahm Regional Airport,40.82139968869999,-82.5166015625
McAllen Miller International Airport,26.176141,-98.237965
Rogue Valley International-Medford Airport,42.374199,-122.873001
Michigan City Municipal Airport,41.7033,-86.821198
Dobbins Air Reserve Base,33.915401,-84.516296
Montgomery Regional (Dannelly Field) Airport,32.300598,-86.393997
Morgantown Municipal Airport Walter L. (Bill) Hart Field,39.643305,-79.917598
Manhattan Regional Airport,39.14099884033203,-96.6707992553711
Sacramento Mather Airport,38.554744,-121.297989
Manchester-Boston Regional Airport,42.932598,-71.435699
Miami International Airport,25.7932,-80.290604
Minot Air Force Base,48.4156,-101.358002
Delaware County Johnson Field,40.242298,-85.395897
Millville Municipal Airport,39.367802,-75.072197
Charles B. Wheeler Downtown Airport,39.123199,-94.592796
General Mitchell International Airport,42.947201,-87.896599
Muskegon County Airport,43.169498,-86.238197
McKellar-Sipes Regional Airport,35.599899,-88.915604
Melbourne Orlando International Airport,28.102009,-80.641088
Mc Alester Regional Airport,34.882401,-95.783501
Quad City International Airport,41.448502,-90.5075
Miles City Airport - Frank Wiley Field,46.427268,-105.885372
Monroe Regional Airport,32.510899,-92.037697
Mc Entire Joint National Guard Base,33.92079926,-80.80130005
Morristown Municipal Airport,40.799062,-74.414949
Mc Minnville Municipal Airport,45.19440079,-123.1360016
Mobile Regional Airport,30.6912,-88.242798
Modesto City Co-Harry Sham Field,37.625801,-120.954002
Minot International Airport,48.25801,-101.279123
Edward F Knapp State Airport,44.20349884,-72.56230164
Smyrna Airport,36.0089988708,-86.5201034546
Eastern WV Regional Airport/Shepherd Field,39.40190125,-77.98459625
Monterey Regional Airport,36.586777,-121.844183
Northwest Alabama Regional Airport,34.745123,-87.612981
Dane County Regional Truax Field,43.1399,-89.337502
Missoula Montana Airport,46.915816,-114.091107
Minneapolis–Saint Paul International Airport / Wold–Chamberlain Field,44.880081,-93.221741
Massena International Airport Richards Field,44.936157,-74.844304
Louis Armstrong New Orleans International Airport,29.993401,-90.258003
Selfridge Air National Guard Base Airport,42.613463,-82.836919
Florida Keys Marathon International Airport,24.726006,-81.05138
Montrose Regional Airport,38.5098,-107.893997
Martin State Airport,39.325699,-76.413803
Muir Army Air Field (Fort Indiantown Gap) Airport,40.435214,-76.568661
Mountain Home Air Force Base,43.043598,-115.872002
Veterans Airport of Southern Illinois,37.751208,-89.016568
Grant County International Airport,47.20769882,-119.3199997
Mineral Wells Regional Airport,32.781601,-98.060204
Maxwell Air Force Base,32.3829,-86.365799
McCall Municipal Airport,44.888837,-116.101112
Myrtle Beach International Airport,33.679699,-78.928299
Yuba County Airport,39.09780121,-121.5699997
Beaufort MCAS - Merritt Field,32.4774017334,-80.723197937
New Orleans NAS JRB/Alvin Callender Field,29.82530022,-90.03500366
MCAS New River / McCutcheon Field,34.708401,-77.439697
Whiting Field Naval Air Station South Airport,30.704399,-87.023003
Lakehurst Maxfield Field Airport,40.03329849,-74.353302
Lakefront Airport,30.042400360107,-90.028297424316
Camp Pendleton MCAS (Munn Field) Airport,33.30130005,-117.3550034
Fallon Naval Air Station,39.41659927,-118.7009964
NAS Fort Worth JRB / Carswell Field,32.769199,-97.441498
Naval Air Station Corpus Christi Truax Field,27.6926,-97.2911
Norfolk Naval Station (Chambers Field),36.937599,-76.289299
Patuxent River Naval Air Station (Trapnell Field),38.285999,-76.411797
China Lake Naws (Armitage Field) Airport,35.6853981,-117.6920013
Jacksonville Naval Air Station (Towers Field),30.2358,-81.680603
El Centro NAF Airport (Vraciu Field),32.829201,-115.671996
Cherry Point MCAS / Cunningham Field/,34.900902,-76.880699
Miramar Marine Corps Air Station - Mitscher Field,32.86840057,-117.1429977
Lemoore Naval Air Station (Reeves Field) Airport,36.33300018,-119.9520035
Naval Air Station Meridian / McCain Field,32.5531,-88.55406
Naval Air Station Pensacola Forrest Sherman Field,30.352699,-87.318604
Millington-Memphis Airport,35.356701,-89.8703
Kingsville Naval Air Station,27.5072002411,-97.8097000122
Naval Air Station Key West/Boca Chica Field,24.57579994,-81.68890381
Naval Station Mayport / Admiral David L McDonald Field,30.3911,-81.424698
Whiting Field Naval Air Station - North,30.7241993,-87.02189636
Point Mugu Naval Air Station (Naval Base Ventura Co),34.120300293,-119.121002197
Oceana Naval Air Station,36.820702,-76.033501
Moffett Federal Airfield,37.4161,-122.049004
Whidbey Island Naval Air Station (Ault Field),48.351799,-122.655998
Twentynine Palms Strategic Expeditionary Landing Field,34.2962,-116.162003
Quantico Marine Corps Airfield / Turner Field,38.501701,-77.305298
Yuma International Airport / Marine Corps Air Station Yuma,32.650938,-114.609375
North Island Naval Air Station-Halsey Field,32.69919968,-117.2149963
Albert J Ellis Airport,34.829201,-77.612099
San Francisco Bay Oakland International Airport,37.720085,-122.221184
Offutt Air Force Base,41.119307,-95.90851
Karl Stefan Memorial Airport,41.985500335693,-97.435096740723
Orangeburg Municipal Airport,33.456798553467,-80.859497070312
Ogden Hinckley Airport,41.195899963379,-112.0120010376
Ogdensburg International Airport,44.6819,-75.4655
OKC Will Rogers World Airport,35.393388,-97.598248
L M Clayton Airport,48.094501,-105.574997
Olympia Regional Airport,46.969399,-122.903
Nogales International Airport,31.4177,-110.848
Columbus Municipal Airport,41.448145,-97.340174
Eppley Airfield,41.3032,-95.894096
Ontario Municipal Airport,44.0198,-117.013289
Newport Municipal Airport,44.580399,-124.057999
Ontario International Airport,34.056,-117.600998
Miami-Opa Locka Executive Airport,25.907,-80.278397
Quonset State Airport,41.597099304199,-71.412101745605
Chicago O'Hare International Airport,41.9786,-87.9048
Norfolk International Airport,36.895341,-76.201
Worcester Regional Airport,42.2673,-71.875702
Orlando Executive Airport,28.5455,-81.332901
Orcas Island Airport,48.708199,-122.910004
Wittman Regional Airport,43.98440170288086,-88.55699920654297
The Ohio State University Airport - Don Scott Field,40.0798,-83.072998
Southwest Oregon Regional Airport,43.41709899902344,-124.24600219726562
Ottumwa Regional Airport,41.106368,-92.449837
Owensboro Daviess County Airport,37.74010086,-87.16680145
Norwood Memorial Airport,42.1904983521,-71.1728973389
Ocean City Municipal Airport,38.310398,-75.124001
Oxnard Airport,34.200801849365,-119.20700073242
Cairns AAF (Fort Rucker) Air Field,31.27569962,-85.71340179
Haeju Airfield,38.00739,125.777321
Kwaksan Air Base,39.731218,125.110159
Koksan Air Base,38.690201,126.606003
Hwangju Airbase,38.653459,125.78888
Pukchang Air Base,39.505001,125.963997
Toksan Air Base,39.996257,127.611694
Hwangsuwon Airbase,40.6814,128.151001
Changjin Air Force Base,40.364375,127.264252
Riwon Airbase,40.359822,128.720584
Kwail Air Base,38.425487,125.019093
Uthachi Highway Strip Airport,38.913877,125.821309
Koksan 2 Highway Strip,38.663481,126.586618
Seattle Paine Field International Airport,47.9063,-122.281998
Barkley Regional Airport,37.06079864501953,-88.7738037109375
Tyndall Air Force Base,30.069599,-85.575401
Palo Alto Airport,37.461102,-122.114998
"Pine Bluff Regional Airport, Grider Field",34.174121,-91.935643
Plattsburgh International Airport,44.650902,-73.468102
Palm Beach International Airport,26.683201,-80.095596
Carl R Keller Field,41.515647,-82.868328
DeKalb Peachtree Airport,33.87633,-84.30213
Eastern Oregon Regional Airport at Pendleton,45.695099,-118.841003
Portland International Airport,45.588699,-122.598
Page Municipal Airport,36.924234,-111.447716
Punta Gorda Airport,26.9202,-81.990501
Pitt-Greenville Airport,35.635535,-77.384262
Newport News Williamsburg International Airport,37.131901,-76.492996
Philadelphia International Airport,39.871899,-75.241096
Phoenix Sky Harbor International Airport,33.435302,-112.005905
General Wayne A. Downing Peoria International Airport,40.663841,-89.692631
Hattiesburg Laurel Regional Airport,31.4671,-89.337097
St. Petersburg Clearwater International Airport,27.9102,-82.687401
Pocatello Regional Airport,42.9098014831543,-112.59600067138672
Pierre Regional Airport,44.38270187,-100.2860031
Pittsburgh International Airport,40.491501,-80.232903
Mid Ohio Valley Regional Airport,39.3451,-81.439201
Pellston Regional Airport of Emmet County Airport,45.57089996,-84.79669952
Palmdale Regional Airport / USAF Plant 42 Airport,34.629398,-118.084999
Ralph Wenz Field,42.79550171,-109.8069992
Ponca City Regional Airport,36.73199844,-97.09980011
Northeast Philadelphia Airport,40.082406,-75.010614
Pensacola International Airport,30.472718,-87.186639
Pope Field,35.170898,-79.014503
Polk Army Air Field,31.0447998,-93.1917038
Dutchess County Airport,41.6265983581543,-73.88420104980469
Presque Isle International Airport,46.688999,-68.0448
Paso Robles Municipal Airport,35.67290115,-120.6269989
Prescott Regional Airport - Ernest A. Love Field,34.653502,-112.419883
Cox Field,33.636600494385,-95.450798034668
Tri Cities Airport,46.264702,-119.119003
Portsmouth International Airport at Pease,43.0779,-70.823303
Palm Springs International Airport,33.8297,-116.507004
Oakland County International Airport,42.665500640869,-83.420097351074
Pueblo Memorial Airport,38.289101,-104.497002
Pullman-Moscow Regional Airport,46.741601,-117.11163
Rhode Island T. F. Green International Airport,41.725038,-71.425668
Provo Municipal Airport,40.218894,-111.722445
Chicago Executive Airport,42.114222,-87.901494
Portland International Jetport,43.646198,-70.309303
Bremerton National Airport,47.490200042725,-122.76499938965
Riverside Municipal Airport,33.9519,-117.445
Rapid City Regional Airport,44.0452995300293,-103.05699920654297
Red Bluff Municipal Airport,40.1506996155,-122.251998901
Ellsworth Air Force Base,44.14500046,-103.1039963
Redding Municipal Airport,40.50899887,-122.2929993
Reading Regional Airport (Carl A Spaatz Field),40.378502,-75.965202
Roberts Field,44.254101,-121.150002
Grand Forks Air Force Base,47.961101532,-97.4011993408
Raleigh-Durham International Airport,35.878659,-78.7873
Chicago Rockford International Airport,42.1954,-89.097198
Rhinelander Oneida County Airport,45.63119888305664,-89.46749877929688
Western Carolina Regional Airport,35.195202,-83.862999
Richmond International Airport,37.505199,-77.319702
Garfield County Regional Airport,39.526299,-107.726997
March Air Reserve Base,33.880699,-117.259003
Central Wyoming Regional Airport,43.064201,-108.459999
Knox County Regional Airport,44.060101,-69.099197
Southwest Wyoming Regional Airport,41.5942,-109.065001
Griffiss International Airport,43.23379898,-75.40699768
Richard B Russell Airport,34.3506011963,-85.15799713130001
Randolph Air Force Base,29.529699,-98.2789
New Richmond Regional Airport,45.1483,-92.538101
Reno Tahoe International Airport,39.4991,-119.767998
Roanoke–Blacksburg Regional Airport,37.3255,-79.975403
Frederick Douglass Greater Rochester International Airport,43.1189,-77.672401
Roswell Air Center Airport,33.301601,-104.530998
Russell Municipal Airport,38.872100830078,-98.811798095703
Rochester International Airport,43.908298,-92.5
Southwest Florida International Airport,26.534685,-81.752816
Rutland - Southern Vermont Regional Airport,43.5294,-72.9496
Tulsa Riverside Airport,36.0396,-95.984596
Redwood Falls Municipal Airport,44.547199,-95.082298
